City_ID,City,Lat,Lng,Max Temp,Humidity,Cloudiness,Wind Speed,Country,Date
0,urucara,-2.5364,-57.76,24.79,91,70,0.73,BR,1686624372
1,ushuaia,-54.8,-68.3,4.81,75,20,10.8,AR,1686624372
2,albany,42.6001,-73.9662,20.51,78,100,1.34,US,1686624110
3,cidreira,-30.1811,-50.2056,9.04,71,83,3.65,BR,1686624338
4,punta arenas,-53.15,-70.9167,6.06,70,20,6.17,CL,1686624177
5,vaini,-21.2,-175.2,23.09,78,75,0.51,TO,1686624372
6,palotina,-24.2839,-53.84,10.85,72,100,5.05,BR,1686624372
7,iqaluit,63.7506,-68.5145,0.85,69,75,4.63,CA,1686624372
8,barrow,71.2906,-156.7887,7.01,76,0,4.12,US,1686624372
9,yellowknife,62.456,-114.3525,7.29,70,75,3.09,CA,1686624097
10,hobart,-42.8794,147.3294,13.48,78,0,3.09,AU,1686624208
11,puerto ayora,-0.7393,-90.3518,26.42,93,76,4.47,EC,1686624308
12,mahebourg,-20.4081,57.7,23.47,94,40,2.06,MU,1686624373
13,riviere-au-renard,48.9957,-64.3971,11.16,69,53,1.81,CA,1686624258
14,atar,20.5169,-13.0499,29.04,22,66,4.04,MR,1686624347
15,kodiak,57.79,-152.4072,13.73,47,20,6.17,US,1686624373
16,norman wells,65.282,-126.8329,12.02,76,75,5.66,CA,1686624297
17,kankon,15.0167,74.0167,27.89,79,26,4.92,IN,1686624373
18,mataura,-46.1927,168.8643,11.18,89,66,0.41,NZ,1686624373
19,hermanus,-34.4187,19.2345,16.0,88,100,13.84,ZA,1686624332
20,laishevo,55.4046,49.5504,11.12,67,0,5.28,RU,1686624373
21,dunedin,-45.8742,170.5036,12.67,64,60,1.79,NZ,1686624373
22,bengkulu,-3.8004,102.2655,28.57,65,18,1.05,ID,1686624373
23,faya,18.3851,42.4509,19.29,45,90,2.4,SA,1686624373
24,qaanaaq,77.484,-69.3632,0.11,98,100,2.47,GL,1686624374
25,dudinka,69.4058,86.1778,11.6,56,64,2.98,RU,1686624374
26,rikitea,-23.1203,-134.9692,22.21,65,8,2.74,PF,1686624374
27,saldanha,-33.0117,17.9442,13.03,83,100,7.95,ZA,1686624340
28,castro,-24.7911,-50.0119,11.72,98,100,4.51,BR,1686624374
29,bredasdorp,-34.5322,20.0403,14.19,75,78,10.56,ZA,1686624101
30,dingle,10.9995,122.6711,31.72,63,100,3.17,PH,1686624374
31,boa vista,2.8197,-60.6733,25.99,89,40,1.54,BR,1686624374
32,kiunga,-6.1219,141.2906,26.63,91,94,1.56,PG,1686624374
33,magway,20.15,94.9167,31.41,57,94,4.57,MM,1686624374
34,busselton,-33.65,115.3333,15.83,71,100,6.72,AU,1686624374
35,tura,25.5198,90.2201,27.14,83,7,3.0,IN,1686624374
36,encruzilhada do sul,-30.5439,-52.5219,1.61,70,0,1.96,BR,1686624375
37,sioux lookout,50.1001,-91.917,20.04,49,75,1.54,CA,1686624147
38,sainte-rose,16.3324,-61.6979,26.02,89,0,2.06,GP,1686624375
39,saint george,37.1041,-113.5841,22.36,42,0,2.06,US,1686624375
40,buin,-33.7333,-70.75,11.14,24,0,1.57,CL,1686624375
41,mar del plata,-38.0023,-57.5575,6.72,90,40,2.68,AR,1686624375
42,kapaa,22.0752,-159.319,27.99,80,20,6.69,US,1686624375
43,hefei,31.8639,117.2808,27.01,61,0,2.0,CN,1686624375
44,santa vitoria do palmar,-33.5189,-53.3681,8.48,74,98,3.1,BR,1686624375
45,avarua,-21.2078,-159.775,26.03,83,20,7.72,CK,1686624375
46,upernavik,72.7868,-56.1549,-0.66,96,100,16.73,GL,1686624376
47,mayumba,-3.432,10.6554,23.14,93,92,2.03,GA,1686624376
48,san quintin,30.4833,-115.95,16.55,84,9,6.01,MX,1686624376
49,asyut,27.181,31.1837,28.1,27,2,3.87,EG,1686624376
50,bathsheba,13.2167,-59.5167,27.34,89,75,4.12,BB,1686624376
51,christchurch,-43.5333,172.6333,12.4,77,75,2.57,NZ,1686624303
52,longyearbyen,78.2186,15.6401,2.91,75,75,5.14,SJ,1686624350
53,rorvik,64.8621,11.2373,12.99,100,100,4.12,NO,1686624376
54,honningsvag,70.9821,25.9704,5.86,75,75,10.8,NO,1686624376
55,coahuayana,18.7333,-103.6833,24.92,84,11,0.48,MX,1686624377
56,bluff,-46.6,168.3333,11.49,82,78,3.33,NZ,1686624377
57,ierapetra,35.01,25.7353,22.3,71,4,1.79,GR,1686624377
58,thompson,55.7435,-97.8558,8.09,81,100,5.14,CA,1686624097
59,gari,59.4307,62.3497,12.0,52,2,3.79,RU,1686624377
60,ouadda,8.0777,22.4007,20.43,99,100,0.7,CF,1686624377
61,miri,4.4148,114.0089,30.08,79,40,1.54,MY,1686624377
62,carnarvon,-24.8667,113.6333,19.13,31,0,6.83,AU,1686624377
63,chuy,-33.6971,-53.4616,8.64,75,96,2.57,UY,1686624377
64,matara,5.9485,80.5353,28.16,80,98,5.64,LK,1686624377
65,troitskoye,52.9821,84.6757,19.48,62,29,1.54,RU,1686624378
66,kruisfontein,-34.0033,24.7314,11.6,69,87,3.53,ZA,1686624378
67,prieska,-29.6641,22.7474,5.48,90,33,7.08,ZA,1686624378
68,padang,-0.9492,100.3543,30.03,66,81,1.04,ID,1686624378
69,kavieng,-2.5744,150.7967,29.03,77,51,4.36,PG,1686624378
70,talnakh,69.4865,88.3972,10.79,62,89,2.4,RU,1686624378
71,ndioum,16.5129,-14.6471,31.43,25,86,3.66,SN,1686624347
72,sorland,67.667,12.6934,6.92,79,100,6.19,NO,1686624378
73,sinnamary,5.3833,-52.95,25.7,86,77,4.11,GF,1686624378
74,pimentel,-6.8367,-79.9342,22.16,83,0,8.75,PE,1686624378
75,lavrentiya,65.5833,-171.0,7.33,75,97,3.75,RU,1686624379
76,ilulissat,69.2167,-51.1,2.01,75,75,0.0,GL,1686624379
77,khasan,42.4308,130.6434,17.58,81,88,3.05,RU,1686624379
78,saint-philippe,-21.3585,55.7679,21.77,74,0,1.93,RE,1686624379
79,sao joao da barra,-21.6403,-41.0511,22.65,88,75,2.77,BR,1686624363
80,cape town,-33.9258,18.4232,15.77,80,75,7.2,ZA,1686624379
81,georgetown,5.4112,100.3354,30.96,79,20,3.09,MY,1686624256
82,dikson,73.5069,80.5464,-1.04,88,35,5.92,RU,1686624379
83,adrasmon,40.6472,69.9856,21.71,42,100,3.33,TJ,1686624379
84,kachiry,53.0675,76.1036,16.87,43,65,3.24,KZ,1686624379
85,bayir,37.2687,28.2167,14.29,83,5,0.86,TR,1686624379
86,soc trang,9.6033,105.98,32.37,55,90,4.51,VN,1686624379
87,gravdal,68.1214,13.5031,7.23,84,100,4.23,NO,1686624380
88,bethel,41.3712,-73.414,19.19,89,100,2.06,US,1686624136
89,karla,59.3723,24.9275,10.32,80,0,1.03,EE,1686624380
90,aksarka,66.5606,67.7975,8.27,45,100,4.4,RU,1686624380
91,fengrun,39.8333,118.1167,28.5,29,9,3.86,CN,1686624380
92,lebu,-37.6167,-73.65,7.8,70,0,6.13,CL,1686624252
93,andros town,24.7,-77.7667,25.98,76,54,3.18,BS,1686624380
94,tuktoyaktuk,69.4541,-133.0374,18.0,52,75,4.12,CA,1686624380
95,cairns,-16.9167,145.7667,28.93,73,100,3.6,AU,1686624117
96,batticaloa,7.7102,81.6924,28.85,71,99,0.44,LK,1686624380
97,kudahuvadhoo,2.6708,72.8944,28.7,76,75,5.81,MV,1686624381
98,narsaq,60.9167,-46.05,10.12,73,100,2.53,GL,1686624381
99,rawson,-43.3002,-65.1023,5.62,52,99,1.55,AR,1686624381
100,hithadhoo,-0.6,73.0833,28.78,70,69,3.7,MV,1686624122
101,airai,-8.9266,125.4092,21.94,40,100,2.16,TL,1686624381
102,antalaha,-14.9003,50.2788,20.2,87,9,2.06,MG,1686624381
103,grahamstown,-33.3042,26.5328,10.44,54,99,9.7,ZA,1686624381
104,margate,51.3813,1.3862,16.84,86,0,1.79,GB,1686624381
105,rieti,42.4072,12.8592,16.51,93,19,1.96,IT,1686624381
106,esmeralda,21.8525,-78.1169,25.7,89,100,1.69,CU,1686624381
107,jamestown,42.097,-79.2353,13.77,79,100,4.12,US,1686624324
108,sutto,47.7589,18.4487,13.91,63,100,0.75,HU,1686624381
109,lago da pedra,-4.3333,-45.1667,22.44,96,5,1.85,BR,1686624381
110,ilo,-17.6394,-71.3375,16.85,81,20,3.36,PE,1686624382
111,abaete,-19.16,-45.4458,21.91,47,92,1.8,BR,1686624382
112,eenhana,-17.4667,16.3333,10.22,21,5,1.89,NA,1686624382
113,hanna,51.6334,-111.9018,22.01,60,53,2.6,CA,1686624382
114,hilo,19.7297,-155.09,28.85,65,0,2.68,US,1686624382
115,hammerfest,70.6634,23.6821,5.25,81,100,8.23,NO,1686624336
116,mildura,-34.2,142.15,15.04,70,17,9.9,AU,1686624382
117,tessalit,20.1986,1.0114,31.4,29,91,4.34,ML,1686624382
118,pisco,-13.7,-76.2167,20.03,77,2,3.09,PE,1686624260
119,kavaratti,10.5669,72.642,29.6,75,96,9.19,IN,1686624382
120,new norfolk,-42.7826,147.0587,13.72,78,94,1.37,AU,1686624358
121,bambous virieux,-20.3428,57.7575,23.45,94,40,2.06,MU,1686624382
122,sitka,57.0531,-135.33,11.94,62,75,6.17,US,1686624137
123,fort nelson,58.8053,-122.7002,15.77,74,75,3.58,CA,1686624383
124,hami,42.8,93.45,33.59,15,76,3.45,CN,1686624383
125,economy,40.6001,-80.2248,15.64,89,72,3.02,US,1686624383
126,peta,39.1667,21.0347,18.93,88,16,1.49,GR,1686624383
127,husavik,66.0449,-17.3389,9.09,74,30,1.34,IS,1686624383
128,waipawa,-41.4122,175.5153,9.94,76,28,5.7,NZ,1686624383
129,baneh,35.9975,45.8853,20.74,37,0,1.37,IR,1686624383
130,victoria,22.2855,114.1577,33.57,76,94,1.79,HK,1686624230
131,kikwit,-5.041,18.8162,21.23,95,89,0.54,CD,1686624383
132,bon accord,53.8335,-113.4187,27.75,59,40,2.33,CA,1686624383
133,esperance,-33.8667,121.9,15.91,70,21,7.66,AU,1686624383
134,keti bandar,24.1447,67.4497,31.28,63,100,11.3,PK,1686624384
135,kilindoni,-7.9139,39.6668,26.16,65,0,5.7,TZ,1686624384
136,el reno,35.5323,-97.955,18.49,91,100,0.0,US,1686624384
137,solnechnyy,50.7214,136.6319,21.45,40,8,2.95,RU,1686624384
138,rio gallegos,-51.6226,-69.2181,5.03,65,0,7.2,AR,1686624384
139,tazovskiy,67.4667,78.7,1.06,91,100,7.98,RU,1686624384
140,kerchevskiy,59.946,56.2884,12.87,56,45,3.84,RU,1686624384
141,hovd,48.0056,91.6419,17.31,36,0,1.62,MN,1686624384
142,los llanos de aridane,28.6585,-17.9182,19.86,85,100,3.09,ES,1686624384
143,vyartsilya,62.1764,30.693,11.6,65,99,2.19,RU,1686624384
144,atuona,-9.8,-139.0333,27.08,73,39,9.19,PF,1686624384
145,pevek,69.7008,170.3133,0.06,99,100,3.53,RU,1686624385
146,korla,41.7597,86.1469,33.07,17,95,2.86,CN,1686624385
147,cockburn town,21.4612,-71.1419,27.98,84,7,9.86,TC,1686624385
148,beringovskiy,63.05,179.3167,10.83,68,28,2.58,RU,1686624385
149,poum,-20.2333,164.0167,23.63,64,7,3.93,NC,1686624385
150,nantucket,41.2835,-70.0995,19.03,100,100,5.66,US,1686624385
151,visby,57.6409,18.296,8.79,87,0,1.03,SE,1686624385
152,rayadrug,14.7,76.8667,27.63,59,14,7.88,IN,1686624385
153,port alfred,-33.5906,26.891,15.0,57,100,8.46,ZA,1686624385
154,laguna,38.421,-121.4238,24.99,59,100,5.14,US,1686624385
155,ihosy,-22.4,46.1167,12.82,67,0,1.37,MG,1686624385
156,lata,40.1629,-8.3327,18.37,98,99,1.72,PT,1686624386
157,ouallam,14.3188,2.0866,27.77,64,100,3.68,NE,1686624386
158,khatanga,71.9667,102.5,14.3,51,100,2.76,RU,1686624386
159,loandjili,-4.7561,11.8578,23.06,94,20,1.54,CG,1686624386
160,arraial do cabo,-22.9661,-42.0278,21.81,91,2,3.23,BR,1686624323
161,pangnirtung,66.1451,-65.7125,-4.27,96,94,1.89,CA,1686624386
162,vallenar,-28.5708,-70.7581,9.37,83,0,0.21,CL,1686624386
163,chaman,30.9236,66.4512,29.59,14,0,2.65,PK,1686624386
164,harper,4.375,-7.7169,25.4,76,98,3.79,LR,1686624386
165,andira,-0.7385,-47.8437,23.25,97,100,1.78,BR,1686624386
166,san esteban,15.2,-85.75,32.5,93,100,0.5,HN,1686624265
167,nikolskoye,59.7035,30.7861,12.67,59,8,1.75,RU,1686624387
168,xichang,27.8964,102.2634,21.83,56,100,1.37,CN,1686624387
169,sumbe,-11.2061,13.8437,20.47,87,67,0.53,AO,1686624387
170,grindavik,63.8424,-22.4338,8.28,87,0,1.54,IS,1686624387
171,walvis bay,-22.9575,14.5053,12.83,93,0,2.57,NA,1686624291
172,pedernales,18.0384,-71.744,27.52,62,5,3.28,DO,1686624318
173,birao,10.2849,22.7882,24.09,83,100,1.42,CF,1686624387
174,severo-yeniseyskiy,60.3725,93.0408,9.74,70,99,2.84,RU,1686624387
175,yangzhou,32.3972,119.4358,25.93,56,100,2.24,CN,1686624387
176,hasaki,35.7333,140.8333,27.38,85,99,5.43,JP,1686624387
177,arzgir,45.3728,44.2206,20.71,80,100,3.94,RU,1686624387
178,inverell,-29.7833,151.1167,15.93,94,89,1.79,AU,1686624388
179,zhigalovo,54.8097,105.1578,12.52,77,100,0.64,RU,1686624388
180,ahipara,-35.1667,173.1667,17.68,67,72,5.21,NZ,1686624388
181,butaritari,3.0707,172.7902,28.2,77,100,4.64,KI,1686624388
182,rosetta,31.4044,30.4164,21.62,77,0,2.13,EG,1686624388
183,alamogordo,32.8995,-105.9603,24.64,12,0,3.6,US,1686624388
184,vanimo,-2.6741,141.3028,24.8,93,100,2.93,PG,1686624388
185,lakselv,70.0513,24.9718,8.9,71,100,4.12,NO,1686624388
186,ostrovnoy,68.0531,39.5131,12.11,82,100,7.47,RU,1686624388
187,toora-khem,52.4675,96.11,18.6,38,25,3.87,RU,1686624388
188,cayenne,4.9333,-52.3333,25.02,94,0,0.51,GF,1686624388
189,pacific grove,36.6177,-121.9166,16.82,81,40,5.14,US,1686624389
190,tasiilaq,65.6145,-37.6368,3.09,96,100,0.34,GL,1686624389
191,emerald,-23.5333,148.1667,25.75,47,4,1.27,AU,1686624301
192,palmer,42.1584,-72.3287,19.92,85,100,1.54,US,1686624389
193,burnie,-41.0667,145.9167,13.03,91,100,5.79,AU,1686624389
194,hutchinson,38.0608,-97.9298,19.46,61,0,0.0,US,1686624349
195,glenwood springs,39.5505,-107.3248,18.51,70,0,1.54,US,1686624389
196,chokurdakh,70.6333,147.9167,4.96,45,100,8.66,RU,1686624389
197,quatre cocos,-20.2078,57.7625,23.38,79,26,3.79,MU,1686624389
198,fukue,32.6881,128.8419,23.2,94,75,3.09,JP,1686624389
199,souillac,-20.5167,57.5167,23.21,94,40,2.06,MU,1686624389
200,shelburne,44.0787,-80.2041,11.53,99,100,6.32,CA,1686624252
201,virginia beach,36.8529,-75.978,24.45,89,75,2.57,US,1686624341
202,ravar,31.2656,56.8055,30.03,17,0,1.27,IR,1686624390
203,hirara,24.8,125.2833,25.92,100,75,8.23,JP,1686624390
204,independence,39.0911,-94.4155,19.9,66,0,2.06,US,1686624335
205,kaitangata,-46.2817,169.8464,11.78,76,34,1.79,NZ,1686624390
206,japura,-0.3167,102.35,30.28,63,84,2.26,ID,1686624390
207,tirumullaivasal,11.2333,79.8333,30.42,62,97,6.38,IN,1686624390
208,cabo san lucas,22.8909,-109.9124,30.17,39,0,2.57,MX,1686624184
209,tyup,42.7276,78.3648,21.06,55,75,1.43,KG,1686624390
210,amapa,1.0,-52.0,22.33,99,47,0.72,BR,1686624390
211,klaksvik,62.2266,-6.589,6.51,70,99,0.88,FO,1686624390
212,leningradskiy,69.3833,178.4167,6.33,86,100,3.1,RU,1686624391
213,constitucion,-35.3333,-72.4167,7.76,63,0,2.27,CL,1686624391
214,sao gabriel da cachoeira,-0.1303,-67.0892,25.17,81,100,0.49,BR,1686624391
215,aranda de duero,41.6704,-3.6892,12.14,90,95,0.15,ES,1686624391
216,banjar,-8.19,114.9675,30.15,63,31,0.82,ID,1686624391
217,basco,20.4487,121.9702,27.22,89,100,12.45,PH,1686624391
218,samsun,41.25,36.3333,21.05,83,75,2.06,TR,1686624391
219,bulaevo,54.9056,70.4439,12.35,53,100,3.59,KZ,1686624392
220,tunceli,39.1083,39.5471,18.55,66,58,1.33,TR,1686624392
221,tucson,32.2217,-110.9265,30.32,15,0,4.12,US,1686624135
222,north platte,41.1239,-100.7654,18.95,57,100,2.68,US,1686624392
223,sabha,27.0377,14.4283,25.4,38,0,4.63,LY,1686624392
224,torbay,47.6666,-52.7314,7.99,95,100,7.2,CA,1686624392
225,valdivia,-39.8142,-73.2459,2.6,98,12,1.63,CL,1686624108
226,salta,-24.7859,-65.4117,6.33,52,100,2.57,AR,1686624392
227,saint anthony,45.0205,-93.218,22.96,42,0,2.57,US,1686624392
228,san cristobal,7.7669,-72.225,23.1,96,97,1.32,VE,1686624392
229,upata,8.0086,-62.3989,23.44,96,99,1.42,VE,1686624393
230,susanville,40.4163,-120.653,17.29,78,40,3.09,US,1686624393
231,lompoc,34.6391,-120.4579,18.21,83,0,3.09,US,1686624262
232,pyay,18.8167,95.2167,29.0,68,100,3.64,MM,1686624393
233,cobourg,50.2667,10.9667,11.12,61,0,0.45,DE,1686624393
234,hamilton,39.1834,-84.5333,14.47,75,20,2.06,US,1686624393
235,ponta do sol,32.6667,-17.1,19.35,83,91,0.5,PT,1686624393
236,payo,-3.7508,103.6372,30.65,56,15,2.07,ID,1686624393
237,verkhoyansk,67.5447,133.385,13.56,33,3,2.97,RU,1686624393
238,soyo,-6.1349,12.3689,22.39,91,34,2.95,AO,1686624393
239,mitsamiouli,-11.3847,43.2844,24.88,65,0,2.64,KM,1686624393
240,wattegama,6.7989,81.4808,28.38,67,100,2.23,LK,1686624394
241,kariba,-16.5167,28.8,17.29,48,50,2.11,ZW,1686624394
242,thanh hoa,19.8,105.7667,33.55,58,100,1.52,VN,1686624394
243,antofagasta,-23.65,-70.4,15.6,81,42,3.16,CL,1686624267
244,lyngseidet,69.5763,20.2189,8.0,82,100,4.62,NO,1686624394
245,changping,40.2186,116.2197,29.8,22,13,0.89,CN,1686624394
246,codrington,-38.2667,141.9667,13.33,69,96,7.06,AU,1686624394
247,calama,-22.4667,-68.9333,5.14,39,0,0.7,CL,1686624247
248,neiafu,-18.65,-173.9833,24.38,83,75,3.09,TO,1686624394
249,beloha,-25.1667,45.05,16.22,96,14,3.4,MG,1686624394
250,hualmay,-11.0964,-77.6139,20.02,80,34,6.25,PE,1686624394
251,egvekinot,66.3167,-179.1667,4.82,80,98,2.99,RU,1686624394
252,hibbing,47.4272,-92.9377,17.64,51,0,1.54,US,1686624395
253,imeni poliny osipenko,52.4201,136.4853,21.15,48,2,2.42,RU,1686624395
254,khandbari,27.3747,87.2039,23.02,84,95,0.07,NP,1686624395
255,poso,-1.3959,120.7524,30.77,62,73,1.63,ID,1686624395
256,touros,-5.1989,-35.4608,24.07,89,4,4.53,BR,1686624268
257,hervey bay,-25.2986,152.8535,21.04,66,0,0.94,AU,1686624395
258,roebourne,-20.7833,117.1333,23.99,27,8,9.14,AU,1686624395
259,sahibganj,25.25,87.65,34.59,50,0,3.47,IN,1686624395
260,bogande,12.9714,-0.1436,27.0,66,81,2.21,BF,1686624395
261,thaba-tseka,-29.522,28.6084,-0.58,91,7,2.49,LS,1686624395
262,kemin,42.7846,75.6892,24.06,48,96,0.41,KG,1686624395
263,cabedelo,-6.9811,-34.8339,24.37,84,28,6.08,BR,1686624396
264,comodoro rivadavia,-45.8667,-67.5,7.92,34,0,6.17,AR,1686624396
265,omboue,-1.5746,9.2618,23.29,93,100,2.18,GA,1686624396
266,east london,-33.0153,27.9116,16.69,44,93,9.47,ZA,1686624396
267,fortuna,40.5982,-124.1573,13.53,94,100,5.14,US,1686624396
268,odweyne,9.4092,45.064,22.59,59,82,7.39,SO,1686624396
269,saskylakh,71.9167,114.0833,15.57,44,92,3.77,RU,1686624396
270,luderitz,-26.6481,15.1594,12.25,81,0,4.21,NA,1686624224
271,olinda,-8.0089,-34.8553,26.85,78,75,3.09,BR,1686624265
272,hartselle,34.4434,-86.9353,19.86,85,33,2.21,US,1686624258
273,iskateley,67.6803,53.1512,9.6,56,79,4.15,RU,1686624396
274,pascagoula,30.3658,-88.5561,23.03,96,0,0.0,US,1686624396
275,hobyo,5.3505,48.5268,25.75,82,55,9.93,SO,1686624397
276,cienfuegos,22.1461,-80.4356,25.08,100,3,2.06,CU,1686624293
277,port lincoln,-34.7333,135.8667,13.58,61,95,9.7,AU,1686624397
278,mapastepec,15.4333,-92.9,26.86,89,72,1.46,MX,1686624376
279,anadyr,64.75,177.4833,17.28,48,0,3.0,RU,1686624397
280,dire,12.2833,-10.9667,26.69,71,92,1.56,ML,1686624397
281,sao filipe,14.8961,-24.4956,24.75,77,100,5.16,CV,1686624397
282,buraydah,26.326,43.975,28.25,19,1,7.85,SA,1686624136
283,salalah,17.0151,54.0924,29.05,94,75,1.54,OM,1686624397
284,ayr,55.4627,-4.6339,15.84,88,0,1.54,GB,1686624397
285,rock sound,24.9,-76.2,27.33,83,100,4.67,BS,1686624397
286,dharmadam,11.7833,75.4333,27.96,76,97,0.68,IN,1686624397
287,fort saint james,54.4333,-124.25,23.5,36,78,3.31,CA,1686624398
288,paulo afonso,-9.4061,-38.2147,20.35,98,14,2.31,BR,1686624398
289,usinsk,65.9939,57.5281,11.16,88,91,6.31,RU,1686624398
290,ornskoldsvik,63.2909,18.7153,13.53,71,100,2.06,SE,1686624398
291,lusambo,-4.9667,23.45,20.04,87,38,0.49,CD,1686624398
292,marfino,55.7028,37.3822,11.14,66,0,3.0,RU,1686624398
293,trebinje,42.7119,18.3442,19.2,56,0,5.66,BA,1686624101
294,ushumun,52.7833,126.5333,27.13,42,100,1.29,RU,1686624398
295,batagay-alyta,67.8006,130.4114,13.48,26,1,2.66,RU,1686624398
296,biak,-0.9131,122.8766,27.17,77,100,1.44,ID,1686624398
297,kuryk,43.2,51.65,26.13,34,0,1.99,KZ,1686624398
298,iacu,-12.7672,-40.2117,19.1,89,0,0.73,BR,1686624366
299,te anau,-45.4167,167.7167,10.31,78,48,0.2,NZ,1686624399
300,killam,52.7834,-111.8518,25.97,41,86,2.57,CA,1686624399
301,lasa,46.6166,10.7002,16.49,96,60,0.65,IT,1686624399
302,srandakan,-7.9386,110.2506,28.34,72,99,5.42,ID,1686624399
303,aluksne,57.4167,27.05,9.98,73,3,1.68,LV,1686624399
304,launceston,-41.45,147.1667,14.8,77,100,4.63,AU,1686624399
305,half moon bay,37.4636,-122.4286,20.44,77,100,5.14,US,1686624399
306,mao,39.8885,4.2658,20.31,100,0,2.06,ES,1686624399
307,bilibino,68.0546,166.4372,7.05,89,100,5.75,RU,1686624399
308,moose factory,51.2585,-80.6094,13.0,71,0,2.06,CA,1686624399
309,severo-kurilsk,50.6789,156.125,9.08,88,100,0.42,RU,1686624400
310,oxelosund,58.6706,17.1015,8.21,93,0,0.51,SE,1686624400
311,iquitos,-3.7481,-73.2472,24.02,94,75,0.51,PE,1686624400
312,yumen,40.2833,97.2,29.62,12,0,10.39,CN,1686624400
313,geraldton,-28.7667,114.6,17.23,55,0,6.17,AU,1686624400
314,asau,46.4333,26.4,11.51,85,100,1.29,RO,1686624400
315,petukhovo,55.0692,67.9019,12.72,50,92,4.08,RU,1686624400
316,rudnogorsk,57.2639,103.7519,12.03,48,100,2.38,RU,1686624400
317,tamiahua,21.2667,-97.45,27.22,93,6,3.43,MX,1686624258
318,le port,-20.9373,55.2919,22.16,90,8,3.7,RE,1686624400
319,ayan,56.45,138.1667,8.53,83,79,5.83,RU,1686624400
320,trinidad,-14.8333,-64.9,10.73,88,100,4.83,BO,1686624400
321,san patricio,28.017,-97.5169,28.27,86,54,5.99,US,1686624401
322,aklavik,68.2191,-135.0107,20.84,41,100,2.65,CA,1686624401
323,nalut,30.3333,10.85,24.83,33,0,7.77,LY,1686624401
324,provideniya,64.3833,-173.3,3.06,100,75,6.0,RU,1686624401
325,haines junction,60.7522,-137.5108,12.97,35,15,7.2,CA,1686624401
326,mount gambier,-37.8333,140.7667,11.22,84,100,4.77,AU,1686624263
327,meulaboh,4.1363,96.1285,29.16,67,60,0.86,ID,1686624401
328,san andres,12.5847,-81.7006,29.01,84,20,4.63,CO,1686624401
329,kendari,-3.945,122.4989,24.6,94,100,1.48,ID,1686624401
330,lagos,6.5833,3.75,26.18,86,80,1.62,NG,1686623880
331,berdigestyakh,62.0989,126.6992,10.77,50,100,2.86,RU,1686624227
332,varnavino,57.4035,45.0916,11.08,64,3,1.13,RU,1686624402
333,ardakan,32.31,54.0175,30.05,22,0,0.79,IR,1686624402
334,tondano,1.3038,124.9112,28.05,88,98,0.83,ID,1686624402
335,leshukonskoye,64.8989,45.7622,15.46,61,100,4.23,RU,1686624402
336,ponnani,10.767,75.9252,23.62,77,100,0.76,IN,1686624402
337,balykshi,47.0667,51.8667,27.0,32,0,5.0,KZ,1686624402
338,hambantota,6.1241,81.1185,30.19,79,20,4.63,LK,1686624402
339,bintulu,3.1667,113.0333,31.23,74,40,0.0,MY,1686624215
340,kaeo,-35.1,173.7833,17.66,67,4,3.35,NZ,1686624402
341,buckeye,33.3703,-112.5838,31.57,22,0,2.57,US,1686624279
342,ust-barguzin,53.45,108.9833,8.81,97,100,1.69,RU,1686624402
343,ribeira grande,38.5167,-28.7,19.32,97,10,0.89,PT,1686624403
344,thunder bay,48.4001,-89.3168,15.99,55,75,1.54,CA,1686624143
345,ambon,-3.6954,128.1814,28.08,82,40,2.57,ID,1686624403
346,kahta,37.7855,38.6237,18.65,67,0,1.09,TR,1686624403
347,sampit,-2.5333,112.95,31.36,60,75,1.91,ID,1686624403
348,manono,-7.3,27.4167,20.99,51,93,0.7,CD,1686624403
349,ponta delgada,37.7333,-25.6667,19.4,100,100,4.12,PT,1686624403
350,richards bay,-28.783,32.0377,16.03,89,3,1.9,ZA,1686624262
351,andapa,-14.65,49.65,16.6,99,25,1.01,MG,1686624403
352,clyde river,70.4692,-68.5914,-0.87,86,100,3.6,CA,1686624403
353,sobolevo,54.4299,31.8996,8.26,83,86,3.18,RU,1686624403
354,benghazi,32.1167,20.0667,21.31,85,0,2.76,LY,1686624403
355,mecca,21.4267,39.8261,30.48,23,1,2.45,SA,1686624404
356,vardo,70.3705,31.1107,8.99,66,42,10.8,NO,1686624404
357,lagoa santa,-19.6272,-43.8897,20.54,68,0,3.6,BR,1686624404
358,komsomolskiy,40.4272,71.7189,22.4,73,97,1.03,UZ,1686624404
359,bodden town,19.2833,-81.25,29.0,80,20,3.6,KY,1686624404
360,moree,-29.4667,149.85,21.15,44,68,4.78,AU,1686624404
361,maracas,-13.4411,-40.4308,14.6,89,0,1.8,BR,1686624377
362,alofi,-19.0595,-169.9187,22.94,94,100,6.17,NU,1686624235
363,exeter,50.7236,-3.5275,15.47,94,20,1.81,GB,1686624404
364,puerto colombia,10.9878,-74.9547,29.05,82,60,6.67,CO,1686624404
365,riyadh,24.6877,46.7219,31.08,18,7,3.46,SA,1686624300
366,diffa,13.3154,12.6113,30.93,49,10,1.95,NE,1686624404
367,taoudenni,22.6783,-3.9836,32.82,12,42,4.01,ML,1686624405
368,pocone,-16.2567,-56.6228,16.45,72,94,3.82,BR,1686624405
369,agustin codazzi,10.0341,-73.2361,29.99,74,96,2.15,CO,1686624405
370,lazaro cardenas,17.9583,-102.2,27.11,78,1,3.37,MX,1686624405
371,crotone,39.0851,17.1178,20.11,76,10,2.32,IT,1686624405
372,tuatapere,-46.1333,167.6833,12.54,72,63,0.1,NZ,1686624405
373,bud,39.447,-86.1758,14.91,81,3,2.72,US,1686624405
374,arco,45.9177,10.8867,19.69,95,83,0.49,IT,1686624405
375,kimbe,-5.5502,150.1429,32.72,58,46,1.62,PG,1686624405
376,flinders,-34.5833,150.8552,21.7,61,49,2.68,AU,1686624405
377,labuhan,-6.8844,112.2051,28.93,71,48,2.07,ID,1686624406
378,hindaun,26.7167,77.0167,36.92,32,0,6.86,IN,1686624406
379,triunfo,-29.9433,-51.7181,6.22,70,7,0.86,BR,1686624406
380,tiksi,71.6872,128.8694,2.76,96,100,3.1,RU,1686624406
381,fucecchio,43.7278,10.8101,20.03,86,92,0.92,IT,1686624406
382,cherskiy,68.75,161.3,4.2,68,100,9.2,RU,1686624406
383,berlevag,70.8578,29.0864,6.97,76,75,12.35,NO,1686624406
384,elko,41.0002,-115.5012,17.08,61,99,1.79,US,1686624330
385,nyurba,63.2842,118.3319,15.59,32,94,3.5,RU,1686624366
386,simao,22.7886,100.9748,23.51,87,44,1.36,CN,1686624406
387,kepanjen,-8.1303,112.5727,28.25,63,94,2.05,ID,1686624406
388,manta,-0.95,-80.7333,26.67,89,75,8.05,EC,1686624124
389,nanortalik,60.1432,-45.2371,7.02,76,100,4.23,GL,1686624407
390,vila velha,-20.3297,-40.2925,23.97,88,20,4.12,BR,1686624243
391,nhulunbuy,-12.2333,136.7667,29.34,61,40,7.72,AU,1686624407
392,khash,28.2211,61.2158,29.05,15,4,2.78,IR,1686624407
393,ust-nera,64.5667,143.2,7.72,84,100,3.65,RU,1686624163
394,ayagoz,47.9714,80.4392,22.04,36,79,8.08,KZ,1686624407
395,yeppoon,-23.1333,150.7333,24.88,68,6,3.18,AU,1686624407
396,tupik,54.4253,119.9327,11.04,64,100,4.78,RU,1686624407
397,erice,38.037,12.5865,16.87,83,20,1.54,IT,1686624407
398,minas,-34.3759,-55.2377,6.66,77,97,1.38,UY,1686624266
399,avallon,47.4833,3.9,14.02,87,22,0.6,FR,1686624407
400,kattivakkam,13.2167,80.3167,31.05,74,51,2.59,IN,1686624365
401,nieuw amsterdam,5.8833,-55.0833,26.19,89,100,3.68,SR,1686624408
402,deputatskiy,69.3,139.9,6.39,50,82,10.53,RU,1686624408
403,tautira,-17.7333,-149.15,27.04,68,24,7.65,PF,1686624408
404,pontes e lacerda,-15.2261,-59.3353,14.07,87,100,2.17,BR,1686624408
405,kahului,20.8947,-156.47,31.01,64,0,9.77,US,1686624385
406,khotiv,50.3307,30.4684,13.61,75,100,3.18,UA,1686624113
407,iguatu,-6.3594,-39.2986,24.12,65,27,1.34,BR,1686624408
408,frontera,26.9333,-101.45,37.16,39,0,2.68,MX,1686624408
409,aykhal,66.0,111.5,15.24,34,11,7.69,RU,1686624408
410,matay,28.419,30.7792,28.48,30,25,1.32,EG,1686624408
411,jibuti,11.5,42.5,30.55,37,100,1.46,DJ,1686624409
412,mount isa,-20.7333,139.5,28.87,18,19,5.66,AU,1686624227
413,vila franca do campo,37.7167,-25.4333,19.23,98,100,4.64,PT,1686624409
414,menongue,-14.6585,17.691,10.12,47,2,1.17,AO,1686624409
415,kungurtug,50.5994,97.5228,12.74,74,96,2.47,RU,1686624409
416,ust-kulom,61.6864,53.6902,13.1,72,95,3.9,RU,1686624409
417,seoul,37.5683,126.9778,26.66,58,40,4.12,KR,1686624379
418,oda,35.1833,132.5,26.43,78,100,2.11,JP,1686624409
419,natal,-5.795,-35.2094,24.12,100,40,3.09,BR,1686624409
420,katherine,-14.4667,132.2667,30.18,32,34,6.17,AU,1686624409
421,uaua,-9.8414,-39.4817,20.15,91,0,4.72,BR,1686624410
422,sept-iles,50.2001,-66.3821,17.25,67,100,2.57,CA,1686624362
423,megion,61.0296,76.1136,8.01,56,66,6.6,RU,1686624410
424,manama,26.2154,50.5832,34.99,38,0,2.57,BH,1686624270
425,copiapo,-27.3667,-70.3333,9.83,87,0,0.55,CL,1686624375
426,port hardy,50.6996,-127.4199,19.1,63,40,6.17,CA,1686624141
427,cabra,37.4725,-4.4421,17.02,76,64,0.81,ES,1686624410
428,gat,31.61,34.7642,20.38,75,0,1.5,IL,1686624332
429,ceres,37.5949,-120.9577,26.56,49,20,5.14,US,1686624097
430,puerto escondido,15.85,-97.0667,30.46,66,40,1.54,MX,1686624378
431,kipini,-2.5257,40.5262,24.16,78,12,6.41,KE,1686624410
432,bandar-e lengeh,26.5579,54.8807,28.06,100,84,2.06,IR,1686624410
433,faanui,-16.4833,-151.75,27.42,70,10,6.72,PF,1686624410
434,petropavl,54.8753,69.1628,12.99,58,0,5.0,KZ,1686624410
435,savannah bight,16.45,-85.85,29.3,85,9,11.79,HN,1686624411
436,yegros,-26.45,-56.4,10.33,47,100,4.16,PY,1686624411
437,jacareacanga,-6.2222,-57.7528,24.31,81,87,0.56,BR,1686624411
438,linqing,36.8456,115.7117,31.79,29,4,2.09,CN,1686624411
439,kirakira,-10.4544,161.9205,29.05,76,23,3.28,SB,1686624411
440,chissamba,-12.1667,17.3333,12.56,51,22,1.55,AO,1686624411
441,guerrero negro,27.9769,-114.0611,16.97,80,53,8.0,MX,1686624142
442,dwarka,22.2394,68.9678,29.17,81,100,15.69,IN,1686624411
443,katsuura,35.1333,140.3,23.86,80,89,4.05,JP,1686624411
444,sakakah,29.9697,40.2064,22.76,27,0,2.61,SA,1686624226
445,ust-kut,56.7938,105.7672,13.33,44,100,1.75,RU,1686624411
446,dubbo,-32.25,148.6167,18.07,59,0,4.63,AU,1686624411
447,dauphin,51.1494,-100.0502,23.08,60,0,2.06,CA,1686624114
448,ormara,25.2088,64.6357,31.41,62,69,2.93,PK,1686624412
449,faratsiho,-19.4,46.95,7.87,75,0,1.07,MG,1686624412
450,lac-megantic,45.5834,-70.8823,15.29,88,100,2.04,CA,1686624141
451,carahue,-38.7,-73.1667,3.03,89,0,1.54,CL,1686624412
452,oussouye,12.485,-16.5469,28.1,80,100,3.82,SN,1686624412
453,gazli,40.1333,63.45,31.06,12,3,2.85,UZ,1686624412
454,kushima,31.4583,131.2333,26.22,80,100,1.95,JP,1686624412
455,ambilobe,-13.2,49.05,19.28,92,1,1.35,MG,1686624412
456,broome,42.2506,-75.833,17.47,96,100,4.12,US,1686624412
457,stony brook,40.9257,-73.1409,19.99,96,100,4.12,US,1686624412
458,belmonte,-15.8631,-38.8828,23.26,88,6,1.78,BR,1686624412
459,zaterechnyy,44.7931,45.2097,24.02,63,100,4.68,RU,1686624413
460,bonavista,48.6499,-53.1147,4.81,96,100,9.87,CA,1686624413
461,fort wellington,6.4,-57.6,25.8,87,100,3.97,GY,1686624413
462,ketchikan,55.3422,-131.6461,17.26,55,0,4.12,US,1686624413
463,yazykovo,55.2199,56.1353,10.18,60,0,5.41,RU,1686624413
464,cody,44.5263,-109.0565,16.34,78,100,1.54,US,1686624413
465,mehamn,71.0357,27.8492,6.95,81,75,8.75,NO,1686624413
466,koumac,-20.5667,164.2833,23.79,62,35,3.01,NC,1686624413
467,olafsvik,64.8945,-23.7142,7.58,83,74,3.51,IS,1686624413
468,vostok,46.4856,135.8833,15.75,85,90,1.53,RU,1686624414
469,salto,-31.3833,-57.9667,2.71,100,73,2.72,UY,1686624391
470,ejura,7.3856,-1.3562,20.72,92,51,1.92,GH,1686624414
471,mbour,14.422,-16.9638,27.47,87,36,3.43,SN,1686624414
472,nioro,13.35,-15.75,27.07,74,100,4.53,GM,1686624414
473,ust-tsilma,65.441,52.1498,13.72,71,98,3.5,RU,1686624414
474,gabi,7.6215,126.092,31.43,65,70,0.76,PH,1686624414
475,saint-pierre,-21.3393,55.4781,21.98,73,0,3.09,RE,1686624414
476,ewa beach,21.3156,-158.0072,30.97,57,75,8.75,US,1686624414
477,santa cruz,-17.8,-63.1667,13.7,54,100,9.26,BO,1686624415
478,sahbuz,39.4072,45.5739,18.78,62,6,2.16,AZ,1686624415
479,moreira sales,-24.0622,-53.0069,12.1,95,100,3.28,BR,1686624415
480,alta gracia,-31.6529,-64.4283,2.4,48,61,0.25,AR,1686624387
481,samarai,-10.6167,150.6667,26.44,86,84,6.41,PG,1686624415
482,vestmannaeyjar,63.4427,-20.2734,8.04,84,5,4.69,IS,1686624415
483,yatou,37.15,122.3833,23.94,49,23,3.42,CN,1686624415
484,izhma,65.0083,53.9113,14.6,65,100,3.76,RU,1686624415
485,atambua,-9.1061,124.8925,28.15,44,66,1.46,ID,1686624415
486,chernyshevskiy,63.0128,112.4714,16.91,29,3,0.76,RU,1686624165
487,svetlaya,46.5389,138.3297,12.75,81,100,3.64,RU,1686624416
488,port hedland,-20.3167,118.5667,25.03,20,10,9.26,AU,1686624416
489,opunake,-39.4556,173.8583,15.47,68,0,4.26,NZ,1686624416
490,chicama,-7.8447,-79.1469,21.3,81,10,3.47,PE,1686624416
491,magadan,59.5667,150.8,18.63,85,88,4.36,RU,1686624416
492,santa rosa,14.3122,121.1114,33.38,68,82,4.82,PH,1686624416
493,havelock,34.8791,-76.9013,24.41,91,40,2.06,US,1686624416
494,morrinhos,-17.7311,-49.0994,19.43,54,11,0.77,BR,1686624416
495,lingao,19.9103,109.6859,31.82,64,90,6.9,CN,1686624416
496,el limon,10.3059,-67.6321,24.62,88,100,0.51,VE,1686624416
497,karpogory,64.0019,44.4451,16.5,58,98,4.2,RU,1686624416
498,lima,-12.0432,-77.0282,20.14,80,75,8.75,PE,1686623978
499,acapulco,16.8634,-99.8901,28.28,78,24,2.63,MX,1686624417
500,gombe,10.2897,11.1673,24.94,77,96,3.4,NG,1686624417
501,miyako,39.6367,141.9525,20.98,83,92,2.34,JP,1686624417
502,juneau,58.3019,-134.4197,12.0,84,100,3.09,US,1686624288
503,moyale,3.5167,39.0584,17.17,76,100,2.8,KE,1686624417
504,nador,35.174,-2.9287,22.14,68,0,5.66,MA,1686624417
505,lindi,-10.0,39.7167,18.42,93,0,1.92,TZ,1686624417
506,vuktyl,63.8567,57.3094,10.41,80,100,3.45,RU,1686624417
507,bandarbeyla,9.4942,50.8122,26.82,70,100,13.12,SO,1686624417
508,coquimbo,-29.9533,-71.3436,10.85,81,100,1.54,CL,1686624417
509,nampula,-15.1165,39.2666,17.97,94,40,2.68,MZ,1686624418
510,kalmunai,7.4167,81.8167,29.02,68,96,1.39,LK,1686624169
511,opotiki,-38.0833,177.2833,16.88,55,16,3.28,NZ,1686624418
512,omsukchan,62.5333,155.8,15.43,70,96,6.17,RU,1686624418
513,eyl,7.9803,49.8164,26.48,70,71,10.52,SO,1686624241
514,bull savanna,17.8868,-77.5902,24.99,88,18,5.07,JM,1686624418
515,nuuk,64.1835,-51.7216,0.34,100,100,2.06,GL,1686624418
516,morondava,-20.2833,44.2833,17.73,86,1,3.32,MG,1686624418
517,portland,45.5234,-122.6762,31.02,45,20,5.14,US,1686623909
518,bucerias,20.75,-105.3333,27.99,78,20,4.63,MX,1686624198
519,sur,22.5667,59.5289,33.36,46,100,2.43,OM,1686624418
520,zolotkovo,55.5281,41.1053,10.29,68,0,3.68,RU,1686624419
521,poronaysk,49.2167,143.1167,8.51,98,100,1.88,RU,1686624419
522,tsybli,49.9948,31.5628,11.49,86,100,4.15,UA,1686624419
523,manaus,-3.1019,-60.025,28.27,78,20,1.54,BR,1686624367
524,oranjestad,12.524,-70.027,28.97,85,20,9.26,AW,1686624268
525,otukpo,7.1913,8.1329,22.51,94,98,0.95,NG,1686624419
526,adrar,20.5022,-10.0711,27.52,20,35,5.96,MR,1686624419
527,pizarro,4.9533,-77.366,26.56,83,84,0.82,CO,1686624419
528,ruangwa,-10.0667,38.9333,16.85,92,2,0.82,TZ,1686624419
529,leh,34.1667,77.5833,11.95,49,55,1.18,IN,1686624420
530,maragogi,-9.0122,-35.2225,24.78,85,30,4.68,BR,1686624420
531,oranjemund,-28.55,16.4333,12.29,81,0,1.54,NA,1686624420
532,erzin,36.9559,36.2,19.79,90,45,1.14,TR,1686624420
533,merauke,-8.4667,140.3333,27.33,76,84,7.12,ID,1686624420
534,sindor,62.8629,51.8905,12.53,86,95,2.39,RU,1686624420
535,yar-sale,66.8333,70.8333,5.85,52,20,4.57,RU,1686624420
536,lac du bonnet,50.2536,-96.0612,18.83,66,9,1.92,CA,1686624420
537,port elizabeth,-33.918,25.5701,13.16,65,0,3.6,ZA,1686624324
538,longhua,23.6137,114.1919,32.94,57,46,1.47,CN,1686624420
539,maceio,-9.6658,-35.7353,23.69,100,75,2.57,BR,1686624420
540,chapais,49.7834,-74.8492,17.88,60,100,2.32,CA,1686624420
541,akhmim,26.5622,31.745,29.11,27,0,3.3,EG,1686624421
542,mandalgovi,45.7625,106.2708,26.08,18,0,7.66,MN,1686624421
543,maputo,-25.9653,32.5892,19.01,86,75,2.68,MZ,1686624421
544,tanout,14.9709,8.8879,29.8,45,23,3.96,NE,1686624421
545,totolapa,18.5167,-96.1833,28.36,82,2,3.64,MX,1686624421
546,komsomolets,53.7453,62.0708,12.49,66,100,1.7,KZ,1686624421
547,killybegs,54.6333,-8.45,15.38,94,98,0.65,IE,1686624421
548,luganville,-15.5333,167.1667,25.84,85,68,4.39,VU,1686624421
549,pringsewu,-5.3582,104.9744,29.74,67,38,1.87,ID,1686624421
550,lipari,38.4674,14.954,20.18,81,83,4.01,IT,1686624421
551,zelenets,61.8849,50.7489,14.14,73,97,3.35,RU,1686624421
552,ancud,-41.8697,-73.8203,4.52,90,61,2.61,CL,1686624140
553,serenje,-13.2325,30.2352,12.28,62,51,1.14,ZM,1686624422
554,caqueza,4.4057,-73.9468,18.81,97,99,0.44,CO,1686624422
555,nioki,-2.7167,17.6833,21.91,94,100,0.87,CD,1686624422
556,pinega,64.7001,43.3936,15.75,56,97,4.38,RU,1686624422
557,nikolskiy,60.9151,34.0645,11.76,60,19,2.12,RU,1686624422
558,karachev,53.1229,34.9852,10.1,73,96,5.13,RU,1686624422
559,namibe,-15.1961,12.1522,15.79,79,4,0.99,AO,1686624422
560,novoukrayinka,48.3264,31.5285,11.8,95,99,5.13,UA,1686624422
561,yulara,-25.2406,130.9889,15.24,27,1,3.88,AU,1686624422
562,lorengau,-2.0226,147.2712,29.7,74,62,4.72,PG,1686624422
563,shieli,44.1667,66.75,28.24,14,0,10.03,KZ,1686624423
564,ixtapa,20.7,-105.2,27.57,78,20,4.63,MX,1686624423
565,taltal,-25.4,-70.4833,12.85,79,0,0.48,CL,1686624423
566,nome,64.5011,-165.4064,11.04,76,100,6.17,US,1686624423
567,sarkand,45.41,79.9186,23.72,31,100,2.15,KZ,1686624423
568,bowen,-20.0167,148.2333,23.7,69,17,5.51,AU,1686624367
569,wanning,18.8003,110.3967,31.31,67,100,3.13,CN,1686624423
570,noumea,-22.2763,166.4572,24.99,99,3,7.25,NC,1686624332
571,north bend,43.4065,-124.2243,16.8,88,100,3.6,US,1686624423
572,makat,47.6469,53.3463,30.13,14,59,4.42,KZ,1686624423
573,freeport,40.6576,-73.5832,20.66,91,100,6.17,US,1686624424
574,havoysund,70.9963,24.6622,6.13,83,85,12.83,NO,1686624424
575,vryburg,-26.9566,24.7284,3.96,82,0,3.15,ZA,1686624424
576,goderich,43.7501,-81.7165,13.84,93,78,1.54,CA,1686624424
577,lasem,-6.6922,111.4527,28.92,67,98,3.44,ID,1686624424
