City_ID,City,Lat,Lng,Max Temp,Humidity,Cloudiness,Wind Speed,Country,Date
0,clyde river,70.4692,-68.5914,-35.87,68,75,2.57,CA,1675914935
1,arraial do cabo,-22.9661,-42.0278,23.92,88,75,1.54,BR,1675914859
2,vostok,46.4856,135.8833,-18.12,81,90,4.47,RU,1675914952
3,bredasdorp,-34.5322,20.0403,18.06,83,1,3.91,ZA,1675914823
4,tianpeng,30.9866,103.9393,11.26,78,100,1.71,CN,1675914952
5,buraydah,26.326,43.975,8.25,40,100,2.58,SA,1675914952
6,ucluelet,48.9329,-125.5528,4.8,95,100,5.89,CA,1675914953
7,atuona,-9.8,-139.0333,26.22,79,46,10.06,PF,1675914826
8,mataura,-46.1927,168.8643,13.04,62,87,3.91,NZ,1675914639
9,labuhan,-6.8844,112.2051,28.65,76,93,5.44,ID,1675914874
10,manaure,11.7751,-72.4445,25.42,76,55,8.37,CO,1675914953
11,conde,-7.2597,-34.9075,24.7,88,20,2.06,BR,1675914743
12,chake chake,-5.2459,39.7666,26.02,80,100,2.65,TZ,1675914954
13,asfi,32.2994,-9.2372,13.17,78,29,4.54,MA,1675914954
14,albany,42.6001,-73.9662,0.88,80,81,1.23,US,1675914817
15,chokurdakh,70.6333,147.9167,-31.94,96,100,2.44,RU,1675914820
16,busselton,-33.65,115.3333,27.94,35,0,1.3,AU,1675914656
17,oranjestad,12.524,-70.027,26.06,81,20,7.72,AW,1675914932
18,nome,64.5011,-165.4064,-17.96,78,100,3.09,US,1675914767
19,vaini,-21.2,-175.2,29.09,79,75,2.06,TO,1675914653
20,dingle,10.9995,122.6711,27.8,72,97,7.12,PH,1675914884
21,flin flon,54.7682,-101.865,-18.49,98,27,2.38,CA,1675914940
22,ushuaia,-54.8,-68.3,9.81,87,20,4.12,AR,1675914821
23,manzhouli,49.6,117.4333,-18.18,95,100,1.84,CN,1675914955
24,rocha,-34.4833,-54.3333,20.91,81,20,3.47,UY,1675914867
25,faya,18.3851,42.4509,8.29,60,39,1.73,SA,1675914940
26,gua musang,4.8823,101.9644,28.56,68,100,0.75,MY,1675914955
27,leningradskiy,69.3833,178.4167,-27.68,97,100,2.55,RU,1675914888
28,baiao,-2.7906,-49.6717,22.17,100,96,1.09,BR,1675914956
29,sechura,-5.5569,-80.8222,24.57,74,75,3.9,PE,1675914910
30,trumbull,41.3167,-80.7665,5.61,61,100,3.6,US,1675914956
31,hasaki,35.7333,140.8333,11.27,37,8,7.94,JP,1675914831
32,ekhabi,53.5102,142.9671,-26.79,91,94,7.18,RU,1675914956
33,rosetta,31.4044,30.4164,11.13,57,46,4.62,EG,1675914957
34,avarua,-21.2078,-159.775,28.03,74,40,5.66,CK,1675914638
35,lompoc,34.6391,-120.4579,13.11,81,0,4.12,US,1675914852
36,mahebourg,-20.4081,57.7,27.36,83,75,5.14,MU,1675914756
37,namatanai,-3.6667,152.4333,28.25,72,98,3.14,PG,1675914875
38,puerto ayora,-0.7393,-90.3518,26.42,92,75,2.68,EC,1675914659
39,hermanus,-34.4187,19.2345,19.89,83,76,5.1,ZA,1675914840
40,isangel,-19.55,169.2667,27.06,89,100,4.12,VU,1675914826
41,punta arenas,-53.15,-70.9167,9.06,71,0,3.6,CL,1675914614
42,rikitea,-23.1203,-134.9692,26.75,73,4,6.4,PF,1675914650
43,jamestown,42.097,-79.2353,-0.2,92,0,2.57,US,1675914833
44,lumeje,-11.55,20.7833,16.37,96,100,2.41,AO,1675914958
45,akyab,20.15,92.9,24.26,41,33,1.91,MM,1675914882
46,avallon,47.4833,3.9,-2.13,81,0,1.28,FR,1675914958
47,mar del plata,-38.0023,-57.5575,20.01,92,0,1.54,AR,1675914831
48,sibolga,1.7427,98.7792,29.86,56,65,2.02,ID,1675914884
49,nikolskoye,59.7035,30.7861,1.94,93,100,4.63,RU,1675914646
50,port alfred,-33.5906,26.891,19.54,98,100,1.63,ZA,1675914626
51,wellington,-41.2866,174.7756,19.2,64,15,8.23,NZ,1675914417
52,cidreira,-30.1811,-50.2056,24.49,83,24,8.46,BR,1675914909
53,comitan,16.25,-92.1333,14.49,86,4,3.1,MX,1675914959
54,new norfolk,-42.7826,147.0587,22.17,40,98,0.89,AU,1675914833
55,sola,-13.8833,167.55,31.37,70,75,1.54,VU,1675914959
56,brae,60.3964,-1.353,4.66,68,99,15.07,GB,1675914960
57,los llanos de aridane,28.6585,-17.9182,13.86,73,100,2.57,ES,1675914960
58,castro,-24.7911,-50.0119,16.21,95,12,2.39,BR,1675914888
59,damietta,31.4165,31.8133,7.94,56,14,3.94,EG,1675914960
60,hilo,19.7297,-155.09,24.85,73,75,4.63,US,1675914807
61,arkhipo-osipovka,44.37,38.52,-4.47,82,42,9.81,RU,1675914961
62,airai,-8.9266,125.4092,20.65,77,98,1.88,TL,1675914824
63,aklavik,68.2191,-135.0107,-34.01,99,95,1.53,CA,1675914883
64,chaibasa,22.5667,85.8167,20.49,24,15,2.46,IN,1675914962
65,kavaratti,10.5669,72.642,26.36,70,100,1.73,IN,1675914927
66,lukow,51.929,22.3796,-7.26,90,90,2.56,PL,1675914560
67,sokolow podlaski,52.4068,22.2531,-5.22,88,97,2.79,PL,1675914963
68,georgetown,5.4112,100.3354,28.96,83,20,2.06,MY,1675914934
69,hithadhoo,-0.6,73.0833,27.54,72,77,4.35,MV,1675914828
70,kapaa,22.0752,-159.319,26.99,72,0,8.75,US,1675914822
71,kismayo,-0.3582,42.5454,25.12,83,2,5.43,SO,1675914964
72,ribeira grande,38.5167,-28.7,11.54,80,28,4.02,PT,1675914660
73,bluff,-46.6,168.3333,13.22,56,77,8.33,NZ,1675914833
74,lavrentiya,65.5833,-171.0,-24.44,97,100,1.12,RU,1675914827
75,carnarvon,-24.8667,113.6333,30.79,53,63,6.73,AU,1675914895
76,makat,47.6469,53.3463,-14.95,89,6,2.94,KZ,1675914965
77,ayorou,14.7308,0.9174,22.47,14,6,4.49,NE,1675914967
78,hobart,-42.8794,147.3294,22.37,56,75,5.66,AU,1675914823
79,bull savanna,17.8868,-77.5902,21.8,82,0,3.13,JM,1675914968
80,davila,18.4726,120.5763,28.99,62,18,2.55,PH,1675914969
81,neuquen,-38.9516,-68.0591,27.94,36,0,1.03,AR,1675914626
82,tuktoyaktuk,69.4541,-133.0374,-37.0,74,20,1.54,CA,1675914832
83,torbay,47.6666,-52.7314,-1.45,96,100,6.69,CA,1675914839
84,egvekinot,66.3167,-179.1667,-25.95,96,100,2.14,RU,1675914734
85,kieta,-6.2167,155.6333,29.23,70,100,3.18,PG,1675914952
86,kaitangata,-46.2817,169.8464,14.06,53,83,4.58,NZ,1675914877
87,shingu,33.7333,135.9833,11.72,34,56,1.57,JP,1675914937
88,ilulissat,69.2167,-51.1,-21.99,64,20,2.06,GL,1675914835
89,taihe,30.8712,105.3845,10.88,75,100,1.45,CN,1675914971
90,algeciras,36.1333,-5.4505,14.82,72,100,10.8,ES,1675914971
91,east london,-33.0153,27.9116,19.52,94,100,1.03,ZA,1675914824
92,lorengau,-2.0226,147.2712,28.72,67,100,4.53,PG,1675914763
93,victoria,22.2855,114.1577,23.31,81,96,5.36,HK,1675914782
94,pacific grove,36.6177,-121.9166,12.47,84,0,1.54,US,1675914972
95,klaksvik,62.2266,-6.589,2.51,69,86,19.74,FO,1675914894
96,bethel,41.3712,-73.414,4.5,63,0,2.57,US,1675914827
97,usinsk,65.9939,57.5281,-4.87,94,100,7.26,RU,1675914973
98,meulaboh,4.1363,96.1285,28.76,66,79,1.28,ID,1675914948
99,rawson,-43.3002,-65.1023,21.34,51,71,11.78,AR,1675914840
100,bambous virieux,-20.3428,57.7575,27.34,83,75,5.14,MU,1675914889
101,paamiut,61.994,-49.6678,-1.86,87,100,11.17,GL,1675914974
102,kyren,51.6828,102.1408,-9.05,75,99,0.29,RU,1675914974
103,fairbanks,64.8378,-147.7164,-14.67,84,40,0.0,US,1675914658
104,husavik,66.0449,-17.3389,-5.1,93,52,7.62,IS,1675914841
105,chuy,-33.6971,-53.4616,21.56,93,32,3.22,UY,1675914665
106,strezhevoy,60.7333,77.5889,-15.92,96,100,4.03,RU,1675914975
107,kushiro,42.975,144.3747,-4.47,68,75,4.63,JP,1675914975
108,yellowknife,62.456,-114.3525,-21.36,84,75,4.12,CA,1675914639
109,yaan,7.3833,8.5667,23.73,37,100,2.01,NG,1675914976
110,dikson,73.5069,80.5464,-19.01,85,89,6.12,RU,1675914827
111,chara,56.9064,118.2631,-20.42,86,31,0.57,RU,1675914977
112,port-gentil,-0.7193,8.7815,27.13,81,99,4.41,GA,1675914977
113,roverud,60.2521,12.055,3.03,92,100,8.49,NO,1675914978
114,scicli,36.7902,14.7014,8.75,92,100,15.61,IT,1675914883
115,butaritari,3.0707,172.7902,27.42,82,65,9.15,KI,1675914858
116,arawa,-6.2132,155.5367,29.91,67,100,2.38,PG,1675914979
117,emba,48.8264,58.1442,-20.85,98,29,1.51,KZ,1675914979
118,barrow,71.2906,-156.7887,-20.99,77,100,0.0,US,1675914818
119,constitucion,-35.3333,-72.4167,15.83,73,12,4.81,CL,1675914719
120,lagoa,39.05,-27.9833,13.59,73,100,5.57,PT,1675914980
121,northam,51.0333,-4.2167,8.67,93,100,3.86,GB,1675914980
122,tateyama,34.9833,139.8667,8.92,41,40,6.36,JP,1675914981
123,pokhara,28.2333,83.9833,18.48,41,54,2.52,NP,1675914981
124,vila franca do campo,37.7167,-25.4333,12.23,73,96,3.91,PT,1675914779
125,atar,20.5169,-13.0499,21.01,21,100,0.94,MR,1675914947
126,windsor,42.3001,-83.0165,2.27,84,100,1.54,CA,1675914734
127,coihaique,-45.5752,-72.0662,17.97,63,0,1.54,CL,1675914935
128,kishi,9.0833,3.85,23.75,19,31,2.2,NG,1675914983
129,beberibe,-4.1797,-38.1306,25.03,85,53,3.85,BR,1675914984
130,back mountain,41.3359,-75.9963,1.99,84,98,0.72,US,1675914985
131,say,13.1007,2.3689,24.31,16,95,4.78,NE,1675914991
132,narsaq,60.9167,-46.05,-8.88,93,100,4.07,GL,1675914885
133,kamenka,51.3223,42.7678,-14.45,97,80,2.39,RU,1675914890
134,upernavik,72.7868,-56.1549,-34.6,84,2,3.81,GL,1675914837
135,geraldton,-28.7667,114.6,30.23,45,0,6.69,AU,1675914836
136,carutapera,-1.195,-46.02,24.33,90,100,1.79,BR,1675914992
137,pisco,-13.7,-76.2167,22.03,88,0,5.66,PE,1675914912
138,naze,28.3667,129.4833,17.51,69,100,7.75,JP,1675914989
139,swan hill,-35.3378,143.5544,34.14,14,0,3.87,AU,1675914992
140,nanyang,32.9947,112.5328,4.59,86,100,3.97,CN,1675914993
141,varhaug,58.6147,5.6457,6.61,73,100,9.12,NO,1675914993
142,benjamin constant,-4.3831,-70.0311,23.07,99,95,0.66,BR,1675914994
143,kodiak,57.79,-152.4072,-4.27,36,0,3.09,US,1675914825
144,trenggalek,-8.05,111.7167,29.88,65,96,2.63,ID,1675914994
145,adre,13.4667,22.2,15.29,14,73,6.39,TD,1675914994
146,kichera,55.9375,110.0997,-11.92,91,99,0.8,RU,1675914995
147,thompson,55.7435,-97.8558,-12.91,72,100,5.66,CA,1675914887
148,cape town,-33.9258,18.4232,21.32,72,0,2.57,ZA,1675914836
149,cayenne,4.9333,-52.3333,25.02,94,75,2.06,GF,1675914754
150,tiksi,71.6872,128.8694,-39.37,98,59,2.35,RU,1675914829
151,qaanaaq,77.484,-69.3632,-31.69,64,14,2.71,GL,1675914825
152,birao,10.2849,22.7882,16.75,12,34,3.74,CF,1675914995
153,hilton head island,32.2163,-80.7526,16.66,87,80,2.67,US,1675914996
154,matara,5.9485,80.5353,28.17,65,33,1.61,LK,1675914996
155,ahlat,38.7518,42.4814,-9.31,84,99,2.65,TR,1675914996
156,ellisras,-23.6649,27.7443,19.26,93,62,0.88,ZA,1675914996
157,port blair,11.6667,92.75,28.02,69,40,5.14,IN,1675914846
158,merauke,-8.4667,140.3333,27.76,83,83,5.74,ID,1675914840
159,kunhegyes,47.3667,20.6333,-8.01,75,0,1.68,HU,1675914997
160,almaznyy,48.0448,40.045,-11.89,95,24,2.62,RU,1675914997
161,tuy hoa,13.0833,109.3,26.47,77,90,3.13,VN,1675914998
162,denham springs,30.4869,-90.9562,21.04,96,100,8.75,US,1675914998
163,baykit,61.67,96.37,-15.55,97,99,0.71,RU,1675914998
164,lermontovka,47.1453,134.3383,-15.69,74,12,2.75,RU,1675914999
165,college,64.8569,-147.8028,-14.68,84,75,0.0,US,1675914960
166,clarence town,-32.5833,151.7833,25.45,63,100,2.77,AU,1675914999
167,ponta do sol,32.6667,-17.1,14.84,75,44,3.04,PT,1675914826
168,tazovskiy,67.4667,78.7,-15.92,94,100,6.02,RU,1675914891
169,longyearbyen,78.2186,15.6401,-6.09,79,100,7.72,SJ,1675914880
170,novelda,38.3848,-0.7677,8.96,76,95,2.27,ES,1675915000
171,khani,41.9563,42.9566,-3.24,85,94,1.67,GE,1675914893
172,talnakh,69.4865,88.3972,-19.33,95,100,4.08,RU,1675914891
173,singaraja,-8.112,115.0882,27.25,83,97,2.33,ID,1675915000
174,olinda,-8.0089,-34.8553,26.85,74,40,2.06,BR,1675914939
175,seymchan,62.8833,152.4333,-34.17,92,54,1.2,RU,1675915000
176,uspenka,48.3903,39.1619,-9.7,95,19,1.44,UA,1675915001
177,hofn,64.2539,-15.2082,-4.57,47,0,7.03,IS,1675914819
178,farmington,36.7281,-108.2187,2.38,51,0,1.54,US,1675915001
179,vao,-22.6667,167.4833,26.16,81,100,6.2,NC,1675914828
180,chapais,49.7834,-74.8492,-20.12,100,68,0.84,CA,1675915002
181,conselheiro lafaiete,-20.6603,-43.7861,17.9,99,100,1.49,BR,1675915002
182,iberia,29.9502,-91.7507,18.99,94,75,6.17,US,1675915002
183,avera,33.194,-82.5271,15.86,79,100,3.42,US,1675915002
184,kruisfontein,-34.0033,24.7314,17.16,80,95,1.07,ZA,1675914820
185,doka,13.5167,35.7667,18.75,59,6,3.28,SD,1675915003
186,kijang,35.2442,129.2139,11.85,52,86,6.26,KR,1675915003
187,yumen,40.2833,97.2,0.48,39,11,4.47,CN,1675914888
188,tocopilla,-22.092,-70.1979,22.59,82,45,2.31,CL,1675914713
189,san juan,-31.5375,-68.5364,29.1,36,74,0.79,AR,1675915004
190,naryan-mar,67.6713,53.087,-2.93,84,99,7.47,RU,1675915004
191,peterhead,57.5058,-1.7981,3.15,69,6,10.45,GB,1675914853
192,lebu,-37.6167,-73.65,14.75,95,5,4.59,CL,1675914953
193,meadow lake,34.8014,-106.5436,5.71,49,3,3.3,US,1675915005
194,chateau-thierry,49.05,3.4,0.55,62,1,0.94,FR,1675915005
195,luderitz,-26.6481,15.1594,16.97,96,67,4.5,,1675914978
196,safaga,26.7292,33.9365,13.79,64,100,7.6,EG,1675915005
197,chulym,55.0997,80.9572,-23.43,100,100,0.69,RU,1675915005
198,farah,32.5,62.5,10.22,65,0,2.1,AF,1675915006
199,khatanga,71.9667,102.5,-42.68,99,64,1.71,RU,1675914834
200,omboue,-1.5746,9.2618,25.52,89,75,2.66,GA,1675914938
201,saskylakh,71.9167,114.0833,-41.37,98,54,3.04,RU,1675914855
202,sao filipe,14.8961,-24.4956,20.6,75,58,3.17,CV,1675914879
203,berdigestyakh,62.0989,126.6992,-32.94,93,66,1.15,RU,1675915002
204,plouzane,48.3833,-4.6167,6.03,87,100,2.06,FR,1675915006
205,solnechnyy,50.7214,136.6319,-19.18,80,74,2.03,RU,1675915007
206,souillac,-20.5167,57.5167,26.21,83,75,5.14,MU,1675914897
207,saint-junien,45.8833,0.9,2.14,96,4,1.01,FR,1675915007
208,yulara,-25.2406,130.9889,38.68,12,5,2.54,AU,1675914823
209,mahibadhoo,3.7833,72.9667,27.08,70,43,3.12,MV,1675915008
210,kavieng,-2.5744,150.7967,28.59,71,100,2.75,PG,1675914835
211,thinadhoo,0.5333,72.9333,27.32,72,100,3.0,MV,1675914934
212,kahului,20.8947,-156.47,24.36,70,20,8.05,US,1675914657
213,baiquan,47.5833,126.0833,-12.73,82,38,3.39,CN,1675915008
214,lubao,14.9167,120.55,30.04,48,100,8.25,PH,1675915009
215,xinzhi,36.4989,111.7047,2.96,90,100,3.33,CN,1675915009
216,palauig,15.435,119.9045,29.28,55,99,2.14,PH,1675915009
217,sisimiut,66.9395,-53.6735,-16.39,80,100,3.2,GL,1675915010
218,provideniya,64.3833,-173.3,-20.94,65,100,5.0,RU,1675914823
219,dali,25.7,100.1833,13.21,35,2,1.91,CN,1675915010
220,sharjah,25.3573,55.4033,20.99,64,0,6.17,AE,1675915010
221,aksay,47.26,39.87,-9.86,83,6,4.02,RU,1675915011
222,fortuna,40.5982,-124.1573,7.19,94,0,0.0,US,1675914825
223,mahajanga,-15.7167,46.3167,24.01,94,20,2.06,MG,1675915011
224,krasnoselkup,65.7,82.4667,-18.32,94,100,6.37,RU,1675914771
225,manggar,-2.8833,108.2667,29.74,66,100,2.5,ID,1675915011
226,ostrogozhsk,50.8664,39.0756,-11.95,95,50,1.97,RU,1675915012
227,ambilobe,-13.2,49.05,24.0,91,78,1.02,MG,1675915012
228,saint-joseph,-21.3667,55.6167,27.21,79,62,4.01,RE,1675915012
229,san policarpo,12.1791,125.5072,26.41,83,100,7.5,PH,1675915013
230,salta,-24.7859,-65.4117,22.33,71,75,1.54,AR,1675914915
231,deskati,39.9225,21.8028,-7.58,57,55,0.25,GR,1675915013
232,tasiilaq,65.6145,-37.6368,-14.91,54,96,4.36,GL,1675914661
233,zabaykalsk,49.6333,117.3167,-18.13,96,100,1.87,RU,1675915014
234,pevek,69.7008,170.3133,-34.47,100,100,3.05,RU,1675914834
235,mwene-ditu,-7.0,23.45,17.63,93,99,1.4,CD,1675915014
236,saldanha,-33.0117,17.9442,18.46,79,20,3.57,ZA,1675914565
237,guerrero negro,27.9769,-114.0611,16.01,54,16,0.58,MX,1675914891
238,cockburn town,21.4612,-71.1419,24.79,77,9,11.12,TC,1675914659
239,srednekolymsk,67.45,153.6833,-32.88,96,100,2.89,RU,1675914899
240,mandalgovi,45.7625,106.2708,-7.94,69,9,1.74,MN,1675915015
241,elizabeth city,36.2946,-76.2511,10.57,78,0,2.06,US,1675915015
242,erzin,36.9559,36.2,0.52,52,0,1.57,TR,1675915000
243,alta floresta,-9.8756,-56.0861,21.31,97,66,0.96,BR,1675915016
244,beidao,34.5686,105.8933,5.89,43,2,0.24,CN,1675915016
245,kirakira,-10.4544,161.9205,28.97,75,100,3.85,SB,1675914959
246,koslan,63.4564,48.8989,-5.92,87,53,4.87,RU,1675915016
247,cartagena,10.3997,-75.5144,25.79,78,0,2.57,CO,1675914933
248,praia da vitoria,38.7333,-27.0667,12.14,87,75,5.18,PT,1675915017
249,gaoua,10.2992,-3.2508,27.05,23,91,1.88,BF,1675914890
250,cherskiy,68.75,161.3,-35.19,98,100,3.2,RU,1675914880
251,okha,53.5739,142.9478,-26.51,89,91,7.14,RU,1675915017
252,piacabucu,-10.4056,-36.4344,24.67,79,79,2.37,BR,1675914685
253,kalabo,-14.97,22.6814,19.07,94,100,1.74,ZM,1675915018
254,verkhnevilyuysk,63.4453,120.3167,-37.61,95,79,1.14,RU,1675915018
255,sadasivpet,17.6212,77.9503,25.92,27,63,2.79,IN,1675915018
256,norman wells,65.282,-126.8329,-24.98,77,75,0.0,CA,1675914697
257,klyuchi,52.2667,79.1667,-20.43,100,97,1.75,RU,1675915019
258,maragogi,-9.0122,-35.2225,25.27,81,98,2.29,BR,1675915019
259,ler,8.3018,30.1418,21.28,18,45,2.63,SS,1675915019
260,laguna,38.421,-121.4238,12.4,74,0,0.0,US,1675914915
261,augusto correa,-1.0217,-46.635,23.31,95,93,1.0,BR,1675915020
262,alice springs,-23.7,133.8833,35.75,19,1,5.66,AU,1675914834
263,port-cartier,50.0334,-66.8654,-12.18,75,6,5.8,CA,1675915020
264,namibe,-15.1961,12.1522,20.53,76,98,2.82,AO,1675914817
265,kayseri,38.737,35.4968,-6.99,93,75,0.0,TR,1675915021
266,saint-philippe,-21.3585,55.7679,27.77,82,67,5.18,RE,1675914824
267,jieshi,22.8134,115.8257,18.59,81,100,7.02,CN,1675915021
268,shellbrook,53.2168,-106.4011,-10.43,98,55,2.01,CA,1675915022
269,saint george,37.1041,-113.5841,9.97,49,0,2.06,US,1675914889
270,tiznit,29.5833,-9.5,8.69,62,1,0.86,MA,1675914965
271,hambantota,6.1241,81.1185,28.19,78,20,4.12,LK,1675914830
272,podporozhye,60.9112,34.1706,0.27,93,100,5.07,RU,1675915024
273,cooma,-36.2333,149.1333,20.07,68,94,1.9,AU,1675915025
274,batagay-alyta,67.8006,130.4114,-39.21,96,45,0.8,RU,1675915025
275,katsuura,35.1333,140.3,8.76,38,79,4.33,JP,1675914840
276,severo-kurilsk,50.6789,156.125,-4.79,56,87,9.83,RU,1675914837
277,banda aceh,5.5577,95.3222,28.66,66,70,3.33,ID,1675914758
278,fioletovo,40.7224,44.7177,-10.28,96,100,0.36,AM,1675915026
279,granada,37.25,-3.25,3.26,85,15,2.28,ES,1675915027
280,pangnirtung,66.1451,-65.7125,-30.07,72,18,2.93,CA,1675914883
281,svetlaya,46.5389,138.3297,-11.16,40,23,2.11,RU,1675915028
282,batagay,67.6333,134.6333,-43.06,95,77,0.21,RU,1675915028
283,coquimbo,-29.9533,-71.3436,16.85,94,20,3.09,CL,1675914797
284,codrington,-38.2667,141.9667,21.29,59,2,5.16,AU,1675914824
285,santa luzia,-19.7697,-43.8514,20.19,83,75,2.06,BR,1675915029
286,naron,43.5167,-8.1528,6.68,80,1,4.49,ES,1675915030
287,san carlos de bariloche,-41.1456,-71.3082,17.86,55,0,5.66,AR,1675914851
288,tshikapa,-6.4167,20.8,19.4,96,98,0.57,CD,1675915031
289,mount gambier,-37.8333,140.7667,26.15,35,0,3.58,AU,1675914803
290,bayir,37.2687,28.2167,-0.71,71,32,2.39,TR,1675915031
291,sao joao da barra,-21.6403,-41.0511,22.8,92,100,3.83,BR,1675915006
292,jurado,7.1053,-77.7641,24.86,90,34,1.51,CO,1675915033
293,trinidad,-14.8333,-64.9,22.42,97,100,0.3,BO,1675915034
294,arman,59.7,150.1667,-16.66,77,100,3.91,RU,1675914944
295,westport,41.1415,-73.3579,6.16,66,0,0.45,US,1675914994
296,tucupita,9.0622,-62.051,20.88,99,36,1.52,VE,1675915035
297,marzuq,14.4,46.4667,17.93,27,55,0.23,YE,1675914994
298,union city,37.5958,-122.0192,14.07,77,0,1.34,US,1675915006
299,madang,-5.2246,145.7966,27.97,76,98,2.55,PG,1675915036
300,wajid,3.8093,43.2471,22.61,64,9,6.79,SO,1675915037
301,severnyy,50.677,36.5532,-11.98,85,75,3.13,RU,1675915037
302,whitehorse,60.7161,-135.0538,-4.57,63,20,6.17,CA,1675914780
303,xining,36.6167,101.7667,-2.1,45,2,1.63,CN,1675915010
304,malinyi,-8.9333,36.1333,21.32,98,100,0.66,TZ,1675915038
305,marsa matruh,31.3525,27.2453,11.11,62,40,3.6,EG,1675915039
306,flinders,-34.5833,150.8552,22.88,87,100,1.79,AU,1675914835
307,manokwari,-0.8667,134.0833,25.19,83,100,0.26,ID,1675914856
308,poum,-20.2333,164.0167,27.46,81,99,5.34,NC,1675915040
309,pontian kecil,1.4801,103.3899,31.12,76,94,0.48,MY,1675915041
310,ahar,38.4774,47.0699,-4.07,90,98,2.03,IR,1675915041
311,aitape,-3.1374,142.3475,25.75,90,100,6.05,PG,1675915011
312,iqaluit,63.7506,-68.5145,-33.15,68,0,11.83,CA,1675914827
313,fort nelson,58.8053,-122.7002,-13.23,93,20,2.57,CA,1675914644
314,opuwo,-18.0607,13.84,17.66,42,51,1.66,,1675914913
315,cabo san lucas,22.8909,-109.9124,20.28,46,49,0.77,MX,1675914835
316,milazzo,38.2212,15.2383,9.76,93,100,0.89,IT,1675915043
317,pilar,-9.5972,-35.9567,21.96,86,89,0.68,BR,1675914966
318,nieuw nickerie,5.95,-56.9833,24.52,86,85,4.13,SR,1675915044
319,sitka,57.0531,-135.33,3.94,70,100,5.66,US,1675914877
320,katy,29.7858,-95.8244,9.97,91,0,0.89,US,1675914651
321,pochutla,15.7432,-96.4661,24.9,56,0,1.86,MX,1675915045
322,belmonte,-15.8631,-38.8828,24.8,78,74,3.3,BR,1675915046
323,auki,-8.7676,160.7034,29.34,69,99,1.91,SB,1675914885
324,galt,38.2546,-121.3,12.23,76,62,1.56,US,1675915047
325,tigzirt,36.8886,4.1198,10.26,81,100,5.26,DZ,1675915049
326,chiang rai,19.9167,99.9167,26.68,57,5,1.54,TH,1675915051
327,belomorsk,64.5232,34.7668,2.02,81,100,8.77,RU,1675915052
328,zhigansk,66.7697,123.3711,-40.4,95,100,4.56,RU,1675914987
329,santa fe,-31.6333,-60.7,25.0,75,92,0.89,AR,1675914954
330,caravelas,-17.7125,-39.2481,23.97,87,41,2.33,BR,1675914943
331,vazante,-17.9869,-46.9078,20.99,86,92,0.52,BR,1675914767
332,talara,-4.5772,-81.2719,24.17,83,78,2.8,PE,1675914946
333,kokopo,-4.352,152.2633,29.49,63,89,4.91,PG,1675915053
334,weligama,5.9667,80.4167,28.03,68,35,1.38,LK,1675915053
335,tamandare,-8.7597,-35.1047,25.18,81,89,2.18,BR,1675915054
336,trairi,-3.2778,-39.2689,24.65,79,100,2.68,BR,1675914897
337,kidal,18.4411,1.4078,22.11,15,0,4.27,ML,1675914839
338,aksu,41.1231,80.2644,-1.69,66,60,1.01,CN,1675915054
339,nileshwar,12.25,75.1,26.79,72,76,1.8,IN,1675915054
340,vestmanna,62.1564,-7.1664,1.51,64,75,13.89,FO,1675915055
341,wagar,16.1525,36.2032,16.94,76,45,6.75,SD,1675915055
342,camopi,3.1655,-52.3158,22.08,100,100,0.93,GF,1675915045
343,athabasca,54.7169,-113.2854,-5.77,88,7,3.08,CA,1675915056
344,remontnoye,46.5614,43.6501,-13.25,97,37,2.53,RU,1675915056
345,vestmannaeyjar,63.4427,-20.2734,-1.4,57,100,15.07,IS,1675914813
346,warrnambool,-38.3833,142.4833,20.98,64,3,4.14,AU,1675915057
347,adrar,20.5022,-10.0711,19.11,16,97,3.31,MR,1675914848
348,pombia,45.653,8.6336,-0.02,60,75,2.06,IT,1675915057
349,aleksandrovka,46.8383,32.7612,-6.59,76,5,4.84,UA,1675915057
350,port shepstone,-30.7414,30.455,22.01,80,100,9.12,ZA,1675915058
351,antofagasta,-23.65,-70.4,20.6,84,38,1.86,CL,1675914774
352,kulhudhuffushi,6.6221,73.07,26.5,73,58,2.3,MV,1675915058
353,te anau,-45.4167,167.7167,15.83,38,41,1.38,NZ,1675914916
354,naugachhia,25.4,87.1,20.88,39,0,2.99,IN,1675915059
355,plettenberg bay,-34.0527,23.3716,17.94,83,13,2.16,ZA,1675914820
356,nalut,30.3333,10.85,7.34,89,59,7.52,LY,1675914946
357,bengkulu,-3.8004,102.2655,28.52,63,96,2.2,ID,1675914950
358,ongwediva,-17.7833,15.7667,22.12,57,66,4.74,,1675915059
359,hamilton,39.1834,-84.5333,10.4,94,100,4.12,US,1675914824
360,portobelo,9.55,-79.65,23.95,86,56,7.29,PA,1675915060
361,richards bay,-28.783,32.0377,22.18,89,100,4.59,ZA,1675914717
362,bonoua,5.2741,-3.595,25.79,92,94,1.19,CI,1675915060
363,port elizabeth,-33.918,25.5701,20.73,93,75,1.03,ZA,1675914878
364,kyshtovka,56.555,76.6271,-22.63,100,100,2.74,RU,1675915060
365,alyangula,-13.8483,136.4192,30.26,66,100,1.59,AU,1675915061
366,jalu,29.0331,21.5482,10.12,48,43,6.55,LY,1675915061
367,redmond,47.674,-122.1215,7.81,82,84,0.45,US,1675914702
368,verkhneuralsk,53.8769,59.2106,-14.57,91,98,2.14,RU,1675915061
369,saint-augustin,51.226,-58.6502,-10.43,78,99,9.23,CA,1675914951
370,itoman,26.1247,127.6694,22.21,73,75,7.72,JP,1675915062
371,yerbogachen,61.2767,108.0108,-17.29,94,100,1.65,RU,1675914874
372,isperih,43.7167,26.8333,-12.12,99,82,1.8,BG,1675915062
373,broome,42.2506,-75.833,3.21,67,0,2.57,US,1675914947
374,saravan,39.7196,45.6483,-10.03,81,98,2.91,AM,1675915063
375,natal,-5.795,-35.2094,26.36,83,20,4.12,BR,1675914961
376,wewak,-3.5534,143.6268,25.75,88,100,6.29,PG,1675915063
377,burnie,-41.0667,145.9167,18.86,69,99,4.35,AU,1675915008
378,badin,24.656,68.8384,22.97,50,1,4.98,PK,1675915063
379,mahuva,21.0914,71.7622,25.08,27,14,3.98,IN,1675915064
380,beibei,29.8256,106.4339,12.43,85,100,0.67,CN,1675915064
381,pangkalanbuun,-2.6833,111.6167,33.59,44,31,2.18,ID,1675915065
382,san cristobal,7.7669,-72.225,20.1,74,24,0.25,VE,1675914724
383,rio gallegos,-51.6226,-69.2181,14.03,47,40,4.12,AR,1675914945
384,vavoua,7.3819,-6.4778,21.78,94,96,1.42,CI,1675915065
385,lensk,60.7253,114.9278,-22.94,95,98,1.63,RU,1675915065
386,panguna,-6.3164,155.4848,26.6,66,100,1.39,PG,1675915065
387,waipawa,-41.4122,175.5153,13.48,80,96,4.45,NZ,1675914951
388,takoradi,4.8845,-1.7554,25.51,88,77,2.51,GH,1675915066
389,porto walter,-8.2686,-72.7439,22.35,99,100,1.09,BR,1675915066
390,kigonsera,-10.8,35.05,16.06,93,99,0.38,TZ,1675915066
391,port hedland,-20.3167,118.5667,35.03,55,0,6.17,AU,1675914992
392,iskateley,67.6803,53.1512,-3.05,85,99,7.33,RU,1675914876
393,diego de almagro,-26.3667,-70.05,20.1,49,0,0.99,CL,1675914958
394,paracin,43.8608,21.4078,-3.8,79,11,2.32,RS,1675915067
395,kanniyakumari,8.0833,77.5667,26.94,61,13,5.33,IN,1675915067
396,wanning,18.8003,110.3967,26.16,69,50,2.92,CN,1675914717
397,seddon,-37.8068,144.8916,32.95,55,0,6.69,AU,1675914872
398,korla,41.7597,86.1469,-0.81,58,49,2.65,CN,1675914951
399,the valley,18.217,-63.0578,25.05,74,35,10.75,AI,1675915068
400,elat,29.5581,34.9482,7.91,76,76,1.54,IL,1675915068
401,lata,40.1629,-8.3327,7.26,79,11,2.88,PT,1675915069
402,innisfail,-17.5333,146.0333,29.04,78,78,3.99,AU,1675915069
403,seoul,37.5683,126.9778,6.78,29,0,3.6,KR,1675914737
404,lucapa,-8.4192,20.7447,17.56,96,100,1.76,AO,1675915069
405,santa helena de goias,-17.8136,-50.5969,20.93,90,100,0.64,BR,1675915070
406,santiago,-33.4569,-70.6483,27.36,47,0,2.06,CL,1675915070
407,kluczbork,50.9728,18.2182,-2.46,68,7,5.81,PL,1675915070
408,saysain,14.5611,120.3925,30.05,58,100,5.9,PH,1675915071
409,bijie,27.3125,105.2942,8.11,71,98,1.1,CN,1675915071
410,launceston,-41.45,147.1667,20.8,49,100,3.09,AU,1675915071
411,kasongo-lunda,-6.4667,16.8167,20.72,95,98,0.12,CD,1675915072
412,saverne,48.8333,7.25,-4.28,77,0,0.66,FR,1675915072
413,arlit,18.7369,7.3853,20.54,18,0,2.79,NE,1675915072
414,santa rosa,14.3122,121.1114,30.06,63,100,6.88,PH,1675914915
415,galesong,-5.3166,119.3661,28.01,76,99,2.01,ID,1675915073
416,gorom-gorom,14.4439,-0.2361,23.34,14,4,4.55,BF,1675915073
417,san andres,12.5847,-81.7006,27.01,74,40,6.17,CO,1675914694
418,hailar,49.2,119.7,-15.29,77,100,3.05,CN,1675915073
419,steamboat springs,40.485,-106.8317,-5.59,78,100,5.66,US,1675915074
420,sinnamary,5.3833,-52.95,23.99,90,99,4.73,GF,1675914595
421,taoudenni,22.6783,-3.9836,19.18,19,98,5.85,ML,1675914950
422,santa vitoria do palmar,-33.5189,-53.3681,21.73,93,57,3.12,BR,1675915074
423,linguere,15.3953,-15.1193,22.51,18,77,4.46,SN,1675915074
424,shibetsu,43.659,145.132,-5.61,68,40,5.66,JP,1675915075
425,ahuimanu,21.4447,-157.8378,25.84,63,40,6.69,US,1675915032
426,ada,43.4166,-116.1262,0.34,63,0,3.09,US,1675915075
427,sioux lookout,50.1001,-91.917,0.04,64,100,3.09,CA,1675914654
428,margate,51.3813,1.3862,2.61,84,95,0.89,GB,1675915076
429,palana,59.1167,159.9667,-17.11,92,100,6.56,RU,1675915076
430,santiago de cao,-7.9589,-79.2392,22.07,83,75,3.09,PE,1675915076
431,axim,4.8699,-2.2405,25.49,88,68,2.12,GH,1675914934
432,tuatapere,-46.1333,167.6833,13.96,57,79,4.99,NZ,1675914844
433,vermillion,42.7794,-96.9292,2.62,91,87,1.42,US,1675915077
434,giresun,40.5,38.5,-18.94,82,14,0.64,TR,1675915077
435,njombe,-9.3333,34.7667,13.16,98,100,1.91,TZ,1675915077
436,barrhead,55.7992,-4.3929,5.74,81,40,8.94,GB,1675915078
437,ossora,59.2353,163.0719,-13.58,89,100,7.02,RU,1675915026
438,kawalu,-7.3817,108.2082,24.17,89,100,0.36,ID,1675915059
439,gornozavodsk,58.3758,58.3211,-20.39,100,100,1.36,RU,1675915078
440,yazykovo,55.2199,56.1353,-16.0,100,100,0.41,RU,1675915078
441,kudahuvadhoo,2.6708,72.8944,27.25,71,88,3.64,MV,1675915079
442,atagay,55.1033,99.3875,-7.6,92,100,0.66,RU,1675915079
443,pushkino,56.0172,37.8667,-2.84,98,98,1.76,RU,1675915079
444,chipinge,-20.1883,32.6236,17.14,89,47,0.97,ZW,1675914887
445,samba,32.5667,75.1167,16.75,41,98,0.97,IN,1675915080
446,jipijapa,-1.3333,-80.5833,24.72,90,42,1.15,EC,1675915080
447,vardo,70.3705,31.1107,1.99,75,99,19.55,NO,1675914831
448,ahipara,-35.1667,173.1667,20.85,56,27,4.47,NZ,1675914909
449,khuzhir,53.1939,107.3397,-12.7,92,89,2.94,RU,1675915081
450,kurush,41.2841,47.8345,-13.83,95,100,1.48,RU,1675915081
451,trapani,37.8333,12.6667,7.38,93,40,1.03,IT,1675915081
452,delaware,39.0004,-75.4999,5.0,70,0,0.0,US,1675915081
453,izazi,-7.2,35.7333,20.1,97,100,0.53,TZ,1675915082
454,djambala,-2.5447,14.7533,20.59,86,86,1.48,CG,1675915082
455,basco,20.4487,121.9702,24.29,75,79,8.6,PH,1675915082
456,muana,-1.5283,-49.2167,23.47,93,100,1.67,BR,1675915083
457,san patricio,28.017,-97.5169,13.8,78,67,1.87,US,1675914923
458,deniliquin,-35.5333,144.9667,33.82,21,1,0.25,AU,1675915083
459,matinha,-3.1006,-45.0336,22.65,98,96,1.36,BR,1675915083
460,cangucu,-31.395,-52.6756,19.69,94,99,3.09,BR,1675915084
461,harper,4.375,-7.7169,24.93,88,90,0.45,LR,1675915084
462,zurrieq,35.8311,14.4742,9.73,93,100,6.17,MT,1675915084
463,punta alta,-38.8759,-62.0736,19.83,58,31,4.0,AR,1675915085
464,lulea,65.5842,22.1547,2.04,87,100,8.23,SE,1675915085
465,chandausi,28.45,78.7667,17.38,37,0,3.15,IN,1675915085
466,la ronge,55.1001,-105.2842,-14.86,85,0,0.0,CA,1675914890
467,sabancuy,18.9667,-91.1833,25.32,70,37,2.66,MX,1675915086
468,panjab,34.388,67.0233,-5.03,96,100,2.8,AF,1675915086
469,mantua,45.1667,10.7833,1.58,62,5,2.24,IT,1675914847
470,bereda,43.2686,-7.5406,1.9,98,66,1.84,ES,1675915086
471,vaxjo,56.8777,14.8091,-1.97,92,100,7.72,SE,1675915087
472,shimoda,34.6667,138.95,11.2,54,96,5.68,JP,1675915087
473,salinopolis,-0.6136,-47.3561,25.02,88,99,3.54,BR,1675914979
474,sines,37.9562,-8.8698,10.16,89,52,8.5,PT,1675915087
475,santa maria,-29.6842,-53.8069,25.61,53,75,2.06,BR,1675914806
476,guadalupe y calvo,26.1,-106.9667,3.53,26,0,2.33,MX,1675915088
477,gornopravdinsk,60.05,69.9,-15.25,99,100,3.18,RU,1675915088
478,terrell,32.736,-96.2753,6.07,87,0,2.57,US,1675915088
479,port hardy,50.6996,-127.4199,4.1,93,100,11.32,CA,1675914783
480,strai,58.2,7.9,6.33,78,100,9.26,NO,1675915089
481,jumla,29.2747,82.1838,10.27,27,29,1.34,NP,1675914964
482,koungou,-12.7336,45.2042,27.84,83,75,3.09,YT,1675915089
483,kangaatsiaq,68.3065,-53.4641,-22.83,80,99,5.09,GL,1675915090
484,ko samui,9.5357,99.9357,28.95,74,20,6.17,TH,1675915090
485,cajuru,-21.2753,-47.3042,18.92,92,0,0.31,BR,1675915090
486,shambu,9.5667,37.1,9.79,38,4,1.49,ET,1675915091
487,atambua,-9.1061,124.8925,25.85,83,98,3.53,ID,1675915091
488,el retorno,2.3302,-72.6276,22.76,78,46,1.14,CO,1675915091
489,sao sebastiao do paraiso,-20.9169,-46.9914,17.74,92,0,0.26,BR,1675915055
490,juneau,58.3019,-134.4197,1.79,94,75,3.6,US,1675914919
491,along,28.1667,94.7667,18.25,52,89,0.71,IN,1675914993
492,san martin,-33.081,-68.4681,27.3,46,4,0.91,AR,1675915092
493,upata,8.0086,-62.3989,21.77,89,16,2.14,VE,1675915092
494,kamaishi,39.2667,141.8833,1.07,42,19,6.58,JP,1675915092
495,najran,17.4924,44.1277,13.36,42,19,0.84,SA,1675914635
496,presidencia roque saenz pena,-26.7852,-60.4388,28.57,40,76,3.24,AR,1675915000
497,taos,36.4072,-105.5731,-0.22,57,0,2.57,US,1675915093
498,mahanje,-9.9333,35.3333,17.86,97,99,1.16,TZ,1675915093
499,cabra,37.4725,-4.4421,6.39,83,56,1.85,ES,1675914980
500,sambava,-14.2667,50.1667,24.5,86,60,3.27,MG,1675915093
501,esperance,-33.8667,121.9,21.02,64,29,5.89,AU,1675914846
502,yar-sale,66.8333,70.8333,-12.92,96,94,4.72,RU,1675915094
503,pyapon,16.2833,95.6833,28.23,21,21,3.06,MM,1675915094
504,awjilah,29.1081,21.2869,10.19,48,13,6.95,LY,1675915094
505,kabo,7.6994,18.629,19.51,20,13,2.31,CF,1675915095
506,gamba,-2.65,10.0,25.07,90,33,2.81,GA,1675914940
507,mehamn,71.0357,27.8492,2.95,93,100,9.26,NO,1675914965
508,bilecik,40.0,30.1667,-5.89,96,100,1.41,TR,1675915095
509,puerto escondido,15.85,-97.0667,24.83,64,0,2.43,MX,1675914944
510,olden,61.8364,6.8064,2.28,97,100,4.2,NO,1675915096
511,oussouye,12.485,-16.5469,20.1,73,0,3.62,SN,1675915096
512,ilinskoye-khovanskoye,56.9718,39.7684,-13.18,100,85,1.39,RU,1675915096
513,tibati,6.4667,12.6333,18.04,24,19,0.86,CM,1675915096
514,grindavik,63.8424,-22.4338,-4.03,74,75,10.8,IS,1675914910
515,tres lagoas,-20.7511,-51.6783,22.03,93,73,1.68,BR,1675915097
516,gilgit,35.9221,74.3087,0.98,76,100,1.44,PK,1675915097
517,nicoya,10.1483,-85.452,23.87,76,10,4.95,CR,1675915097
518,priargunsk,50.3691,119.1012,-21.82,95,96,1.34,RU,1675915098
519,asau,46.4333,26.4,-15.4,87,10,2.17,RO,1675914895
520,makakilo city,21.3469,-158.0858,25.18,57,0,6.17,US,1675914933
521,mao,39.8885,4.2658,7.31,81,20,1.03,ES,1675915098
522,kanel,15.4916,-13.1763,24.53,16,10,4.78,SN,1675915099
523,nelson bay,-32.7167,152.15,24.44,76,100,8.49,AU,1675915004
524,fernley,39.608,-119.2518,7.14,46,17,0.89,US,1675915099
525,digras,20.1167,77.7167,24.25,19,54,2.86,IN,1675915099
526,kushima,31.4583,131.2333,12.53,61,100,5.73,JP,1675915100
527,warri,5.5167,5.75,25.37,88,83,1.23,NG,1675915100
528,praya,14.9215,-23.5087,20.3,77,75,5.66,CV,1675914950
529,puri,19.8,85.85,24.29,64,31,1.45,IN,1675915100
530,botwood,49.1499,-55.3482,-8.93,95,94,1.55,CA,1675915101
531,miri,4.4148,114.0089,30.08,79,40,2.06,MY,1675914887
532,ola,59.5833,151.2833,-16.59,73,100,3.05,RU,1675915001
533,pahrump,36.2083,-115.9839,12.36,36,0,0.89,US,1675914833
534,killybegs,54.6333,-8.45,7.09,71,83,7.72,IE,1675915101
535,emerald,-23.5333,148.1667,27.41,54,91,7.15,AU,1675915101
536,aykhal,66.0,111.5,-30.04,99,97,3.2,RU,1675914737
537,xuchang,34.0167,113.8167,3.04,94,100,3.35,CN,1675915102
538,moroto,2.5345,34.6666,18.75,52,9,1.57,UG,1675915102
539,qaqortoq,60.7167,-46.0333,-4.67,89,100,4.25,GL,1675914917
540,quatre cocos,-20.2078,57.7625,27.27,80,38,6.1,MU,1675914838
541,tura,25.5198,90.2201,22.98,39,48,1.31,IN,1675915102
542,manaia,-39.55,174.1333,18.93,67,46,3.89,NZ,1675915103
543,port macquarie,-31.4333,152.9167,26.05,58,100,5.54,AU,1675914957
544,porto seguro,-16.4497,-39.0647,24.29,94,20,2.57,BR,1675915103
545,cap malheureux,-19.9842,57.6142,27.48,76,15,1.34,MU,1675915103
546,ellington,41.904,-72.4698,4.28,76,57,1.43,US,1675915068
547,inawashiro,37.5667,140.1167,0.98,71,71,7.72,JP,1675914992
548,kirkuk,35.4681,44.3922,2.91,87,47,1.08,IQ,1675915104
549,shitanjing,39.2342,106.3439,1.01,47,5,6.28,CN,1675915104
550,katobu,-4.9408,122.5276,24.55,92,100,1.4,ID,1675915104
551,naliya,23.2667,68.8333,22.53,53,3,2.41,IN,1675915105
552,colac,-38.3333,143.5833,25.09,31,13,2.03,AU,1675915105
553,goderich,43.7501,-81.7165,2.18,80,97,1.54,CA,1675915105
554,cercal,37.806,-8.6715,9.3,95,51,5.53,PT,1675915106
555,zyryanka,65.75,150.85,-33.2,93,96,1.11,RU,1675915106
556,hovd,48.0056,91.6419,-13.89,73,97,1.29,MN,1675914833
557,seydi,39.4816,62.9137,0.79,92,70,7.48,TM,1675915106
558,khandyga,62.6667,135.6,-36.13,92,86,0.53,RU,1675915107
559,haines junction,60.7522,-137.5108,-7.03,68,60,2.57,CA,1675914902
560,myaundzha,63.0494,147.1858,-34.99,96,50,0.86,RU,1675915107
561,lumsden,50.6501,-104.8678,-3.47,92,92,4.33,CA,1675915107
562,aden,12.7794,45.0367,24.41,72,2,1.37,YE,1675914859
563,hay river,60.8156,-115.7999,-13.01,78,40,4.12,CA,1675915016
564,almeirim,-1.5233,-52.5817,23.11,95,100,1.21,BR,1675915108
